County,Muni,ReportingUnit,PollingPlaceName,PollingPlaceAddress,Phone,VotingRoomArea,TypeOfBuilding,Longitude,Latitude,ElectionName
ADAMS COUNTY,CITY OF ADAMS,Wards 1-4,ADAMS CITY HALL,"101 N MAIN ST, ADAMS, WI 53910-9805",608-339-6516,,Government,-89.818062,43.957963,2020 Spring Primary
ADAMS COUNTY,CITY OF WISCONSIN DELLS,"Wards 5,9",WISCONSIN DELLS MUNICIPAL BUILDING,"300 LA CROSSE ST, WISCONSIN DELLS, WI 53965-1568",608-254-2012,,Government,-89.775002,43.624787,2020 Spring Primary
ADAMS COUNTY,TOWN OF Adams,Wards 1-3,ADAMS TOWN HALL,"1980 11TH AVE, FRIENDSHIP, WI 53934-9005",608-339-9607,,Government,-89.797287,43.969578,2020 Spring Primary
ADAMS COUNTY,TOWN OF Big Flats,Wards 1-2,BIG FLATS TOWN HALL,"1104 COUNTY ROAD C, ARKDALE, WI 54613-9728",608-564-7754,,Government,-89.798856,44.112347,2020 Spring Primary
ADAMS COUNTY,TOWN OF Colburn,Ward 1,COLBURN TOWN HALL,"198 COUNTY ROAD C, HANCOCK, WI 54943",(715) 249-5998,,Government,-89.617282,44.112258,2020 Spring Primary
ADAMS COUNTY,TOWN OF Dell Prairie,Wards 1-3,DELL PRAIRIE TOWN HALL,"763 COUNTY ROAD K, WISCONSIN DELLS, WI 53965-8981",(608) 254-2618,,Government,-89.731274,43.707364,2020 Spring Primary
ADAMS COUNTY,TOWN OF Easton,Wards 1-2,EASTON TOWN HALL,"1163 COUNTY ROAD A, ADAMS, WI 53910-9784",(608) 584-5069,,Government,-89.809535,43.837756,2020 Spring Primary
ADAMS COUNTY,TOWN OF Jackson,Wards 1-2,JACKSON TOWN HALL,"398 STATE ROAD 82, OXFORD, WI 53952",608-586-4842,,Government,-89.658653,43.77444,2020 Spring Primary
ADAMS COUNTY,TOWN OF Leola,Ward 1,PONDEROSA PINES,"287 STATE ROAD 73, PLAINFIELD, WI 54966",(715) 335-4732,,Government,-89.636674,44.239011,2020 Spring Primary
ADAMS COUNTY,TOWN OF Lincoln,Ward 1,LINCOLN TOWN HALL,"2181 COUNTY ROAD G, GRAND MARSH, WI 53936-9641",608-477-0514,,Government,-89.628161,43.94087,2020 Spring Primary
ADAMS COUNTY,TOWN OF MONROE,Ward 1,MONROE TOWN HALL,"981 COUNTY ROAD Z, ARKDALE, WI 54613-7701",608-564-2417,,Government,-89.940529,44.114897,2020 Spring Primary
ADAMS COUNTY,TOWN OF NEW CHESTER,Wards 1-3,NEW CHESTER TOWN HALL,"629 MASON ST, GRAND MARSH, WI 53936-9576",(608) 369-2020,,Government,-89.704273,43.885825,2020 Spring Primary
ADAMS COUNTY,TOWN OF NEW HAVEN,Ward 1,NEW HAVEN TOWN HALL,"330 GOLDEN CT, WISCONSIN DELLS, WI 53965-8616",(608) 253-4064,,Government,-89.644547,43.669711,2020 Spring Primary
ADAMS COUNTY,TOWN OF PRESTON,Wards 1-2,PRESTON TOWN HALL,"1801 11TH AVE, FRIENDSHIP, WI 53934",608-339-6298,,Government,-89.79775,43.996011,2020 Spring Primary
ADAMS COUNTY,TOWN OF QUINCY,Wards 1-3,QUINCY TOWN HALL,"2599 COUNTY ROAD Z, FRIENDSHIP, WI 53934-9617",608-339-7230,,Government,-89.938629,43.876672,2020 Spring Primary
ADAMS COUNTY,TOWN OF RICHFIELD,Ward 1,RICHFIELD TOWN HALL,"1602 COUNTY ROAD G, COLOMA, WI 54930",715-228-3752,,Government,-89.61786,44.025246,2020 Spring Primary
ADAMS COUNTY,TOWN OF ROME,Wards 1-5,ROME MUNICIPAL BUILDING,"1156 ALPINE DR, NEKOOSA, WI 54457-8616",715-325-8022,,Government,-89.809244,44.22195,2020 Spring Primary
ADAMS COUNTY,TOWN OF SPRINGVILLE,Wards 1-2,SPRINGVILLE TOWN HALL,"3243 STATE HIGHWAY 13, WISCONSIN DELLS, WI 53965-8925",(608) 432-3771,,Government,-89.838373,43.782527,2020 Spring Primary
ADAMS COUNTY,TOWN OF STRONGS PRAIRIE,Wards 1-3,STRONGS PRAIRIE TOWN HALL,"1588 STATE HWY 21, ARKDALE, WI 54613",608-564-7626,,Government,-89.887306,44.026551,2020 Spring Primary
ADAMS COUNTY,VILLAGE OF FRIENDSHIP,Ward 1,FRIENDSHIP VILLAGE HALL,"507 W LAKE ST, FRIENDSHIP, WI 53934-9301",608-339-3243,,Government,-89.823056,43.973468,2020 Spring Primary
ASHLAND COUNTY,CITY OF ASHLAND,Wards 1-11,BRETTING COMMUNITY CENTER,"400 4TH AVE W, ASHLAND, WI 54806-1565",682-7059,,Government,-90.885426,46.587963,2020 Spring Primary
ASHLAND COUNTY,CITY OF MELLEN,Ward 1,MELLEN LIBRARY/SENIOR CITIZEN CENTER,"106 IRON ST, MELLEN, WI 54546-9798",715-274-2131,,Government,-90.658637,46.327258,2020 Spring Primary
ASHLAND COUNTY,TOWN OF AGENDA,Ward 1,AGENDA TOWN HALL,"13922 AGENDA RD, BUTTERNUT, WI 54514-8681",715-769-3538,,Government,-90.446782,46.02342,2020 Spring Primary
ASHLAND COUNTY,TOWN OF ASHLAND,Ward 1,ASHLAND TOWN HALL,"39227 STATE HIGHWAY 13, HIGH BRIDGE, WI 54846-3308",715-274-4700,,Government,-90.734552,46.388686,2020 Spring Primary
ASHLAND COUNTY,TOWN OF CHIPPEWA,Ward 1,CHIPPEWA TOWN HALL,"77504 WEST RD, BUTTERNUT, WI 54514-9154",(715) 769-3126,,Government,-90.561948,46.011385,2020 Spring Primary
ASHLAND COUNTY,TOWN OF GINGLES,Ward 1,GINGLES TOWN HALL,"49833 STATE HIGHWAY 112, ASHLAND, WI 54806-4411",(715) 682-5343,,Government,-90.90715,46.542637,2020 Spring Primary
ASHLAND COUNTY,TOWN OF GORDON,Wards 1-2,GORDON TOWN HALL,"24357 GORDON LAKE RD, GLIDDEN, WI 54527-9155",715-264-2460,,Government,-90.610759,46.169164,2020 Spring Primary
ASHLAND COUNTY,TOWN OF JACOBS,Ward 1,JACOBS TOWN HALL,"23 N GRANT ST, GLIDDEN, WI 54527",(715) 264-4851,,Government,-90.576734,46.135553,2020 Spring Primary
ASHLAND COUNTY,TOWN OF LA POINTE,Ward 1,LA POINTE TOWN HALL,"240 BIG BAY RD, LA POINTE, WI 54850",715-747-6913,,Government,-90.78795,46.782153,2020 Spring Primary
ASHLAND COUNTY,TOWN OF MARENGO,Wards 1-2,MARENGO TOWN HALL,"63478 COUNTY HIGHWAY C, MARENGO, WI 54855-2409",(715) 274-4700,,Government,-90.850887,46.406696,2020 Spring Primary
ASHLAND COUNTY,TOWN OF MORSE,Wards 1-3,MORSE TOWN HALL,"402 2ND AVE, MELLEN, WI 54546-8904",(715) 274-2126,,Government,-90.655752,46.319045,2020 Spring Primary
ASHLAND COUNTY,TOWN OF PEEKSVILLE,Wards 1-2,PEEKSVILLE TOWN HALL,"78746 PEEKSVILLE RD, BUTTERNUT, WI 54514-9195",715-264-2418,,Government,-90.534973,46.09863,2020 Spring Primary
ASHLAND COUNTY,TOWN OF SANBORN,Wards 1-2,SANBORN TOWN HALL,"69393 LAKE SHORE DR E, ASHLAND, WI 54806",(715) 682-2677,,Government,-90.729493,46.608553,2020 Spring Primary
ASHLAND COUNTY,TOWN OF SHANAGOLDEN,Ward 1,SHANAGOLDEN TOWN HALL,"74268 MERTIG RD, GLIDDEN, WI 54527-9737",715-264-5899,,Government,-90.627718,46.117857,2020 Spring Primary
ASHLAND COUNTY,TOWN OF WHITE RIVER,Wards 1-2,WHITE RIVER TOWN HALL,"61939 STATE HIGHWAY 112, ASHLAND, WI 54806",(715) 278-3752,,Government,-90.883809,46.442295,2020 Spring Primary
ASHLAND COUNTY,VILLAGE OF BUTTERNUT,Wards 1-2,BUTTERNUT VILLAGE HALL,"301 W MICHIGAN ST, BUTTERNUT, WI 54514-9782",715-769-3113,,Government,-90.49534,46.013073,2020 Spring Primary
BARRON COUNTY,CITY OF BARRON,Wards 1-7,BARRON CITY HALL,"1456 E LASALLE AVE, BARRON, WI 54812-1638",715-537-5631,,Government,-91.834895,45.40063,2020 Spring Primary
BARRON COUNTY,CITY OF CHETEK,Wards 1-4,CHETEK CITY HALL,"220 STOUT ST, CHETEK, WI 54728-8853",715-924-4838,,Government,-91.652231,45.316546,2020 Spring Primary
BARRON COUNTY,CITY OF CUMBERLAND,Wards 1-4,CUMBERLAND MUNICIPAL BUILDING,"950 1ST AVE, CUMBERLAND, WI 54829-9550",715-822-2752,,Government,-92.018456,45.527651,2020 Spring Primary
BARRON COUNTY,CITY OF RICE LAKE,Wards 1-13,RICE LAKE CITY HALL,"30 E EAU CLAIRE ST, RICE LAKE, WI 54868-1782",715-234-7089,,Government,-91.731703,45.503012,2020 Spring Primary
BARRON COUNTY,TOWN OF ALMENA,Wards 1-2,ALMENA TOWN HALL,"211 SOO AVE E, ALMENA, WI 54805-7105",715-357-6016,,Government,-92.034962,45.418122,2020 Spring Primary
BARRON COUNTY,TOWN OF ARLAND,Ward 1,ARLAND TOWN HALL,"653 9TH AVE, CLAYTON, WI 54004-9088",715-357-3919,,Government,-92.023004,45.338034,2020 Spring Primary
BARRON COUNTY,TOWN OF BARRON,Wards 1-2,BARRON TOWN HALL,"1307 16TH ST, BARRON, WI 54812-8724",715-418-1063,,Government,-91.82701,45.399992,2020 Spring Primary
BARRON COUNTY,TOWN OF BEAR LAKE,Ward 1,BEAR LAKE TOWN HALL,"2498 17TH ST, RICE LAKE, WI 54868-9517",715-234-6474,,Government,-91.807372,45.567056,2020 Spring Primary
BARRON COUNTY,TOWN OF CEDAR LAKE,Ward 1,CEDAR LAKE TOWN HALL,"2696 26 3/4 AVE, MIKANA, WI 54857",715-234-3817,,Government,-91.602512,45.592587,2020 Spring Primary
BARRON COUNTY,TOWN OF CHETEK,Wards 1-2,CHETEK TOWN HALL,"213 KNAPP ST, CHETEK, WI 54728",(715) 859-6708,,Government,-91.651954,45.314273,2020 Spring Primary
BARRON COUNTY,TOWN OF CLINTON,Ward 1,POSKIN COMMUNITY CENTER,"940 14TH AVE, POSKIN, WI 54812-9402",715-357-6188,,Private,-91.96262,45.409623,2020 Spring Primary
BARRON COUNTY,TOWN OF CRYSTAL LAKE,Ward 1,CRYSTAL LAKE TOWN HALL,"1876 STATE ROAD 63, COMSTOCK, WI 54826",715-822-8585,,Government,-92.074709,45.478238,2020 Spring Primary
BARRON COUNTY,TOWN OF CUMBERLAND,Ward 1,CUMBERLAND TOWN HALL,"902 20TH AVE, CUMBERLAND, WI 54829",715-822-4682,,Government,-91.970327,45.495793,2020 Spring Primary
BARRON COUNTY,TOWN OF DALLAS,Ward 1,DALLAS TOWN HALL,"410 W DALLAS ST, DALLAS, WI 54733",715-837-1792,,Government,-91.821807,45.258822,2020 Spring Primary
BARRON COUNTY,TOWN OF DOVRE,Ward 1,DOVRE TOWN HALL,"304 25 1/2 ST, NEW AUBURN, WI 54757",715-237-2530,,Government,-91.634703,45.250721,2020 Spring Primary
BARRON COUNTY,TOWN OF DOYLE,Wards 1-2,DOYLE TOWN HALL,"2248 27TH ST, RICE LAKE, WI 54868-9062",000-000-0000,,Government,-91.601282,45.529935,2020 Spring Primary
BARRON COUNTY,TOWN OF LAKELAND,Wards 1-2,LAKELAND TOWN HALL,"791 29 11/16 AVE, BARRONETT, WI 54813-9414",715-822-2775,,Government,-91.993396,45.635785,2020 Spring Primary
BARRON COUNTY,TOWN OF MAPLE GROVE,Wards 1-2,MAPLE GROVE TOWN HALL,"753 14 1/2 ST, BARRON, WI 54812-9375",715-837-1869,,Government,-91.859235,45.315798,2020 Spring Primary
BARRON COUNTY,TOWN OF MAPLE PLAIN,Ward 1,MAPLE PLAIN TOWN HALL,"393 26TH AVE, CUMBERLAND, WI 54829-9013",715-822-8913,,Government,-92.073447,45.580859,2020 Spring Primary
BARRON COUNTY,TOWN OF OAK GROVE,Wards 1-2,OAK GROVE TOWN HALL,"2798 22ND ST, RICE LAKE, WI 54868",000-000-0000,,Government,-91.703722,45.609339,2020 Spring Primary
BARRON COUNTY,TOWN OF PRAIRIE FARM,Wards 1-2,PRAIRIE FARM TOWN HALL,"865 3 2 3/4 AVE, PRAIRIE FARM, WI 54762",715-455-1188,,Government,-91.980413,45.248041,2020 Spring Primary
BARRON COUNTY,TOWN OF PRAIRIE LAKE,Wards 1-2,PRAIRIE LAKE MUNICIPAL BUILDING,"796 21ST ST, CHETEK, WI 54728-9723",715-924-2580,MEETING ROOM,Government,-91.726573,45.32104,2020 Spring Primary
BARRON COUNTY,TOWN OF RICE LAKE,Wards 1-4,Rice Lake Town Hall,"1830 MACAULEY AVE, RICE LAKE, WI 54868-2909",715-234-8087,,Government,-91.735739,45.481342,2020 Spring Primary
BARRON COUNTY,TOWN OF SIOUX CREEK,Ward 1,SIOUX CREEK MUNICIPAL BUILDING,"2077 3 1/2 AVE, CHETEK, WI 54728-9362",715-837-1007,,Government,-91.73242,45.258441,2020 Spring Primary
BARRON COUNTY,TOWN OF STANFOLD,Ward 1,STANFOLD TOWN HALL,"2097 15TH ST, RICE LAKE, WI 54868",715-234-3487,,Government,-91.846827,45.50891,2020 Spring Primary
BARRON COUNTY,TOWN OF STANLEY,Wards 1-4,STANLEY TOWN HALL,"2026 15TH AVE, CAMERON, WI 54822-4400",715-458-4783,,Government,-91.738562,45.423261,2020 Spring Primary
BARRON COUNTY,TOWN OF SUMNER,Ward 1,SUMNER TOWN HALL,"1550 24 1/2 ST, RICE LAKE, WI 54868-8725",715-859-6250,,Government,-91.654343,45.430437,2020 Spring Primary
BARRON COUNTY,TOWN OF TURTLE LAKE,Ward 1,TURTLE LAKE TOWN HALL,"1076 3RD ST, TURTLE LAKE, WI 54889-8867",715-986-2148,,Government,-92.095315,45.363424,2020 Spring Primary
BARRON COUNTY,TOWN OF VANCE CREEK,Ward 1,VANCE CREEK TOWN HALL,"174 2ND AVE, CLAYTON, WI 54004",715-263-2210,,Government,-92.121144,45.238795,2020 Spring Primary
BARRON COUNTY,VILLAGE OF ALMENA,Ward 1,ALMENA VILLAGE HALL,"131 SOO AVE E, ALMENA, WI 54805-7059",715-357-6600,,Government,-92.036008,45.418133,2020 Spring Primary
BARRON COUNTY,VILLAGE OF CAMERON,Wards 1-3,CAMERON VILLAGE HALL,"300 N 1ST ST, CAMERON, WI 54822-9708",715-458-2117,,Government,-91.736024,45.411849,2020 Spring Primary
BARRON COUNTY,VILLAGE OF DALLAS,Ward 1,DALLAS VILLAGE HALL,"100 DALLAS ST W, DALLAS, WI 54733-9706",715-837-1186,,Government,-91.816413,45.259929,2020 Spring Primary
BARRON COUNTY,VILLAGE OF HAUGEN,Ward 1,HAUGEN VILLAGE HALL,"104 3RD ST, HAUGEN, WI 54841-0234",715-234-8014,,Government,-91.775631,45.608054,2020 Spring Primary
BARRON COUNTY,VILLAGE OF NEW AUBURN,Wards 2-3,NEW AUBURN VILLAGE HALL,"130 E ELM ST, NEW AUBURN, WI 54757",715-237-2223,,Government,-91.560252,45.205035,2020 Spring Primary
BARRON COUNTY,VILLAGE OF PRAIRIE FARM,Ward 1,PRAIRIE FARM VILLAGE HALL,"115 RIVER AVE N, PRAIRIE FARM, WI 54762-9782",715-455-1714,,Government,-91.981442,45.239187,2020 Spring Primary
BARRON COUNTY,VILLAGE OF TURTLE LAKE,Ward 1,TURTLE LAKE MUNICIPAL OFFICE BUILDING,"114 MARTIN AVE E, TURTLE LAKE, WI 54889-9060",,Municipal Chambers,Government,-92.141123,45.39521,2020 Spring Primary
BAYFIELD COUNTY,CITY OF ASHLAND,Ward 12,BRETTING COMMUNITY CENTER,"400 4TH AVE W, ASHLAND, WI 54806-1565",682-7059,,Government,-90.885426,46.587963,2020 Spring Primary
BAYFIELD COUNTY,CITY OF BAYFIELD,Wards 1-4,BAYFIELD CITY HALL,"125 S 1ST ST, BAYFIELD, WI 54814",715-779-5712,,Government,-90.814984,46.809098,2020 Spring Primary
BAYFIELD COUNTY,CITY OF WASHBURN,Wards 1-4,WASHBURN CITY HALL,"119 WASHINGTON AVE, WASHBURN, WI 54891-1164",715-373-6160,,Government,-90.89517,46.671288,2020 Spring Primary
BAYFIELD COUNTY,TOWN OF BARKSDALE,Ward 1,BARKSDALE TOWN HALL,"29025 E ONDOSSAGON RD, ASHLAND, WI 54806-5622",715-682-3412,,Government,-90.970173,46.601359,2020 Spring Primary
BAYFIELD COUNTY,TOWN OF BARNES,Ward 1,BARNES TOWN HALL,"3360 COUNTY HWY N, BARNES, WI 54873-6106",715-795-2782,,Government,-91.502846,46.345529,2020 Spring Primary
BAYFIELD COUNTY,TOWN OF BAYFIELD,Ward 1,BAYFIELD TOWN HALL,"85450 COUNTY HIGHWAY J, BAYFIELD, WI 54814-4455",715-779-5671,,Government,-90.862288,46.809395,2020 Spring Primary
BAYFIELD COUNTY,TOWN OF BAYVIEW,Ward 1,BAYVIEW TOWN HALL,"32030 MAKI RD, WASHBURN, WI 54891-6862",715-373-2813,,Government,-90.904383,46.702853,2020 Spring Primary
BAYFIELD COUNTY,TOWN OF BELL,Ward 1,BELL COMMUNITY CENTER,"22615 COUNTY HIGHWAY C, CORNUCOPIA, WI 54827",715-742-3356,,Private,-91.101193,46.853242,2020 Spring Primary
BAYFIELD COUNTY,TOWN OF CABLE,Ward 1,CABLE COMMUNITY CENTER,"13660 COUNTY HIGHWAY M, CABLE, WI 54821",___-___-____,,Private,-91.287646,46.208858,2020 Spring Primary
BAYFIELD COUNTY,TOWN OF CLOVER,Ward 1,CLOVER TOWN HALL,"86780 LENAWEE RD, HERBSTER, WI 54844",715-774-3780,,Government,-91.261785,46.82862,2020 Spring Primary
BAYFIELD COUNTY,TOWN OF DELTA,Ward 1,DELTA TOWN HALL,"15990 COUNTY HIGHWAY H, MASON, WI 54856-9530",715-372-4747,,Private,-91.240622,46.471732,2020 Spring Primary
BAYFIELD COUNTY,TOWN OF DRUMMOND,Ward 1,DRUMMOND CIVIC CENTER,"52540 FRONT AVE, DRUMMOND, WI 54832-4506",715-739-6662,,Private,-91.25813,46.337369,2020 Spring Primary
BAYFIELD COUNTY,TOWN OF EILEEN,Wards 1-2,EILEEN CONFERENCE BUILDING,"68760 STATE FARM RD, ASHLAND, WI 54806-9338",715-682-5070,,Private,-90.971707,46.5726,2020 Spring Primary
BAYFIELD COUNTY,TOWN OF GRAND VIEW,Ward 1,GRAND VIEW TOWN HALL,"22010 GRANDVIEW BLVD, GRAND VIEW, WI 54839",715-763-3151,,Government,-91.10996,46.370229,2020 Spring Primary
BAYFIELD COUNTY,TOWN OF HUGHES,Ward 1,HUGHES TOWN HALL,"66225 HUGHES TOWN HALL RD, IRON RIVER, WI 54847",715-372-4375,,Government,-91.496391,46.534886,2020 Spring Primary
BAYFIELD COUNTY,TOWN OF IRON RIVER,Wards 1-2,IRON RIVER COMMUNITY CENTER,"8275 E MILL ST, IRON RIVER, WI 54847-3453",715-372-5457,,Government,-91.402815,46.563241,2020 Spring Primary
BAYFIELD COUNTY,TOWN OF KELLY,Ward 1,KELLY TOWN HALL,"27525 MAPLE RIDGE RD, MASON, WI 54856",715-765-4662,,Government,-90.996333,46.444339,2020 Spring Primary
BAYFIELD COUNTY,TOWN OF KEYSTONE,Ward 1,KEYSTONE TOWN HALL,"23960 KLOBUCHER RD, MASON, WI 54856",715-746-2328,,Private,-91.074425,46.531444,2020 Spring Primary
BAYFIELD COUNTY,TOWN OF LINCOLN,Ward 1,LINCOLN TOWN HALL,"28985 E ALTAMONT RD, MASON, WI 54856-4038",715-765-4291,,Private,-90.966065,46.355546,2020 Spring Primary
BAYFIELD COUNTY,TOWN OF MASON,Ward 1,MASON TOWN HALL,"62655 BENOIT RD, MASON, WI 54856-9366",715-765-4711,,Government,-91.114003,46.479981,2020 Spring Primary
BAYFIELD COUNTY,TOWN OF NAMAKAGON,Ward 1,NAMAKAGON TOWN HALL,"23845 COUNTY HIGHWAY M, CABLE, WI 54821",715-794-2666,,Government,-91.073761,46.194307,2020 Spring Primary
BAYFIELD COUNTY,TOWN OF ORIENTA,Ward 1,ORIENTA TOWN GARAGE,"8090 SORENSON RD, PORT WING, WI 54865",715-774-3720,MEETING ROOM,Government,-91.406762,46.690179,2020 Spring Primary
BAYFIELD COUNTY,TOWN OF OULU,Ward 1,OULU TOWN HALL,"2525 W COLBY RD, BRULE, WI 54820",715-372-4507,,Private,-91.521404,46.618343,2020 Spring Primary
BAYFIELD COUNTY,TOWN OF PILSEN,Ward 1,PILSEN TOWN HALL,"23700 PILSEN HALL RD, ASHLAND, WI 54806",715-746-2933,,Government,-91.079797,46.571162,2020 Spring Primary
BAYFIELD COUNTY,TOWN OF PORT WING,Ward 1,PORT WING TOWN HALL,"83030 GRAND AVE, PORT WING, WI 54865",715-744-3624,,Private,-91.385698,46.775571,2020 Spring Primary
BAYFIELD COUNTY,TOWN OF RUSSELL,Wards 1-2,RUSSELL TOWN GARAGE,"35900 STATE HIGHWAY 13, BAYFIELD, WI 54814-4886",715-779-5338,,Government,-90.822865,46.872381,2020 Spring Primary
BAYFIELD COUNTY,TOWN OF TRIPP,Ward 1,TRIPP TOWN COMPLEX,"8590 COUNTY HIGHWAY A, IRON RIVER, WI 54847-7516",715-372-4351,,Government,-91.393684,46.619086,2020 Spring Primary
BAYFIELD COUNTY,TOWN OF WASHBURN,Ward 1,WASHBURN TOWN HALL,"30015 COUNTY HIGHWAY C, WASHBURN, WI 54891",715-373-2330,,Private,-90.946658,46.688176,2020 Spring Primary
BAYFIELD COUNTY,VILLAGE OF MASON,Ward 1,VILLAGE HALL,"59400 NORTHERN LIGHTS BLVD, MASON, WI 54856-4070",715-765-4449,,Government,-91.059119,46.434237,2020 Spring Primary
BROWN COUNTY,CITY OF DE PERE,Wards 1-5,FIRST UNITED PRESBYTERIAN CHURCH,"605 N WEBSTER AVE, DE PERE, WI 54115-3430",920-336-1446,,Religious,-88.04639,44.449971,2020 Spring Primary
BROWN COUNTY,CITY OF DE PERE,"Wards 6-9,18",NOTRE DAME MIDDLE SCHOOL,"220 S MICHIGAN ST, DE PERE, WI 54115-2730",920-336-1813,,School,-88.058771,44.447199,2020 Spring Primary
BROWN COUNTY,CITY OF DE PERE,"Wards 10-12,16-17",DE PERE COMMUNITY CENTER,"600 GRANT ST, DE PERE, WI 54115-1318",920-339-4097,,Government,-88.076442,44.446232,2020 Spring Primary
BROWN COUNTY,CITY OF DE PERE,Wards 13-15,SAINT MARK LUTHERAN CHURCH,"2066 LAWRENCE DR, DE PERE, WI 54115-9421",920-336-2485,,Religious,-88.116231,44.418302,2020 Spring Primary
BROWN COUNTY,CITY OF GREEN BAY,Ward 1,UW-GREEN BAY,"2420 NICOLET DR, GREEN BAY, WI 54311-7003",920-448-3010,,School,-87.920041,44.532445,2020 Spring Primary
BROWN COUNTY,CITY OF GREEN BAY,Ward 2,UW-GREEN BAY,"2420 NICOLET DR, GREEN BAY, WI 54311-7003",920-448-3010,,School,-87.920041,44.532445,2020 Spring Primary
BROWN COUNTY,CITY OF GREEN BAY,Ward 3,UW-GREEN BAY,"2420 NICOLET DR, GREEN BAY, WI 54311-7003",920-448-3010,,School,-87.920041,44.532445,2020 Spring Primary
BROWN COUNTY,CITY OF GREEN BAY,Ward 4,CHRIST OF THE BAY LUTHERAN CHURCH,"450 LAVERNE DR, GREEN BAY, WI 54311-5763",(920) 448-3010,,Religious,-87.93174,44.509247,2020 Spring Primary
BROWN COUNTY,CITY OF GREEN BAY,Ward 5,ATONEMENT LUTHERAN CHURCH,"2132 DECKNER AVE, GREEN BAY, WI 54302-3534",920-448-3010,,Religious,-87.968714,44.501686,2020 Spring Primary
BROWN COUNTY,CITY OF GREEN BAY,Ward 6,GB FIRE STATION NO. 5,"2310 FINGER RD, GREEN BAY, WI 54302-4208",920-448-3010,,Government,-87.96633,44.487973,2020 Spring Primary
BROWN COUNTY,CITY OF GREEN BAY,Ward 7,GB FIRE STATION NO. 5,"2310 FINGER RD, GREEN BAY, WI 54302-4208",920-448-3010,,Government,-87.96633,44.487973,2020 Spring Primary
BROWN COUNTY,CITY OF GREEN BAY,Ward 8,ATONEMENT LUTHERAN CHURCH,"2132 DECKNER AVE, GREEN BAY, WI 54302-3534",920-448-3010,,Religious,-87.968714,44.501686,2020 Spring Primary
BROWN COUNTY,CITY OF GREEN BAY,Ward 9,RAY AND JOAN KROC CORPS COMMUNITY CENTER,"1315 LIME KILN RD, GREEN BAY, WI 54311-6043",(920) 448-3010,,Private,-87.97961,44.481546,2020 Spring Primary
BROWN COUNTY,CITY OF GREEN BAY,Ward 10,SAINT BERNARD'S PARISH,"2040 HILLSIDE LN, GREEN BAY, WI 54302-4055",920-448-3010,,Religious,-87.971597,44.494221,2020 Spring Primary
BROWN COUNTY,CITY OF GREEN BAY,Ward 11,CENTRAL ASSEMBLY OF GOD CHURCH,"831 SCHOEN ST, GREEN BAY, WI 54302-3125",(920) 448-3010,,Religious,-87.980879,44.489778,2020 Spring Primary
BROWN COUNTY,CITY OF GREEN BAY,Ward 12,CENTRAL ASSEMBLY OF GOD CHURCH,"831 SCHOEN ST, GREEN BAY, WI 54302-3125",(920) 448-3010,,Religious,-87.980879,44.489778,2020 Spring Primary
BROWN COUNTY,CITY OF GREEN BAY,Ward 13,SS PETER & PAUL PARISH,"720 N BAIRD ST, GREEN BAY, WI 54302-1902",(920) 448-3010,,Religious,-87.990626,44.512901,2020 Spring Primary
BROWN COUNTY,CITY OF GREEN BAY,Ward 14,RAY AND JOAN KROC CORPS COMMUNITY CENTER,"1315 LIME KILN RD, GREEN BAY, WI 54311-6043",(920) 448-3010,,Private,-87.97961,44.481546,2020 Spring Primary
BROWN COUNTY,CITY OF GREEN BAY,Ward 15,FIRST UNITED CHURCH OF CHRIST,"509 S WEBSTER AVE, GREEN BAY, WI 54301-3924",920-448-3010,,Religious,-88.008027,44.504937,2020 Spring Primary
BROWN COUNTY,CITY OF GREEN BAY,Ward 16,UNION CONGREGATIONAL CHURCH,"716 S MADISON ST, GREEN BAY, WI 54301-3609",920-448-3010,,Religious,-88.01816,44.504702,2020 Spring Primary
BROWN COUNTY,CITY OF GREEN BAY,Ward 17,OUR SAVIOUR LUTHERAN CHURCH,"120 S HENRY ST, GREEN BAY, WI 54302-3405",920-448-3010,,Religious,-87.97855,44.502143,2020 Spring Primary
BROWN COUNTY,CITY OF GREEN BAY,Ward 18,SAINT BERNARD'S PARISH,"2040 HILLSIDE LN, GREEN BAY, WI 54302-4055",920-448-3010,,Religious,-87.971597,44.494221,2020 Spring Primary
BROWN COUNTY,CITY OF GREEN BAY,Ward 19,CHRIST OF THE BAY LUTHERAN CHURCH,"450 LAVERNE DR, GREEN BAY, WI 54311-5763",(920) 448-3010,,Religious,-87.93174,44.509247,2020 Spring Primary
BROWN COUNTY,CITY OF GREEN BAY,Ward 20,SS PETER & PAUL PARISH,"720 N BAIRD ST, GREEN BAY, WI 54302-1902",(920) 448-3010,,Religious,-87.990626,44.512901,2020 Spring Primary
BROWN COUNTY,CITY OF GREEN BAY,Ward 21,GREEN BAY METRO TRANSIT CENTER,"901 UNIVERSITY AVE, GREEN BAY, WI 54302-1013",920-448-3010,,Government,-88.002557,44.517334,2020 Spring Primary
BROWN COUNTY,CITY OF GREEN BAY,Ward 22,CURATIVE CONNECTIONS,"2900 CURRY LN, GREEN BAY, WI 54311-5857",(920) 448-3010,,Private,-87.934343,44.523423,2020 Spring Primary
BROWN COUNTY,CITY OF GREEN BAY,Ward 23,CURATIVE CONNECTIONS,"2900 CURRY LN, GREEN BAY, WI 54311-5857",(920) 448-3010,,Private,-87.934343,44.523423,2020 Spring Primary
BROWN COUNTY,CITY OF GREEN BAY,Ward 24,GREEN BAY LABOR TEMPLE,"1570 ELIZABETH ST, GREEN BAY, WI 54302-2036",920-448-3010,,Private,-87.982425,44.520886,2020 Spring Primary
BROWN COUNTY,CITY OF GREEN BAY,Ward 25,SALVATION ARMY-UNION CT. CORPS,"626 UNION CT, GREEN BAY, WI 54303-3609",(920) 448-3010,,Private,-88.024318,44.526378,2020 Spring Primary
BROWN COUNTY,CITY OF GREEN BAY,Ward 26,NEIGHBORWORKS GREEN BAY,"437 S JACKSON ST, GREEN BAY, WI 54301",,Meeting Room,Private,-88.010458,44.506563,2020 Spring Primary
BROWN COUNTY,CITY OF GREEN BAY,Ward 27,GREEN BAY METRO TRANSIT CENTER,"901 UNIVERSITY AVE, GREEN BAY, WI 54302-1013",920-448-3010,,Government,-88.002557,44.517334,2020 Spring Primary
BROWN COUNTY,CITY OF GREEN BAY,Ward 28,FIRST PRESBYTERIAN CHURCH,"200 S ASHLAND AVE, GREEN BAY, WI 54303-1604",920-448-3010,,Religious,-88.02688,44.51626,2020 Spring Primary
BROWN COUNTY,CITY OF GREEN BAY,Ward 29,TRINITY LUTHERAN CHURCH,"330 S BROADWAY, GREEN BAY, WI 54303-1518",(920) 448-3010,,Religious,-88.024388,44.513787,2020 Spring Primary
BROWN COUNTY,CITY OF GREEN BAY,Ward 30,FIRST PRESBYTERIAN CHURCH,"200 S ASHLAND AVE, GREEN BAY, WI 54303-1604",920-448-3010,,Religious,-88.02688,44.51626,2020 Spring Primary
BROWN COUNTY,CITY OF GREEN BAY,Ward 31,SAINT JOSEPH'S PAROCHIAL SCHOOL,"1224 12TH AVE, GREEN BAY, WI 54304-2647",920-448-3010,,School,-88.041456,44.50673,2020 Spring Primary
BROWN COUNTY,CITY OF GREEN BAY,Ward 32,REDEEMER LUTHERAN CHURCH,"210 S ONEIDA ST, GREEN BAY, WI 54303-1923",920-448-3010,,Religious,-88.043917,44.522152,2020 Spring Primary
BROWN COUNTY,CITY OF GREEN BAY,Ward 33,CALVARY LUTHERAN CHURCH,"1301 S RIDGE RD, GREEN BAY, WI 54304-3233",920-448-3010,,Religious,-88.057747,44.511296,2020 Spring Primary
BROWN COUNTY,CITY OF GREEN BAY,Ward 34,SAINT JOSEPH'S PAROCHIAL SCHOOL,"1224 12TH AVE, GREEN BAY, WI 54304-2647",920-448-3010,,School,-88.041456,44.50673,2020 Spring Primary
BROWN COUNTY,CITY OF GREEN BAY,Ward 35,CALVARY LUTHERAN CHURCH,"1301 S RIDGE RD, GREEN BAY, WI 54304-3233",920-448-3010,,Religious,-88.057747,44.511296,2020 Spring Primary
BROWN COUNTY,CITY OF GREEN BAY,Ward 36,GREEN BAY SEVENTH-DAY ADVENTIST CHURCH,"1414 SHAWANO AVE, GREEN BAY, WI 54303-3112",920-448-3010,,Religious,-88.0527,44.528076,2020 Spring Primary
BROWN COUNTY,CITY OF GREEN BAY,Ward 37,GREEN BAY SEVENTH-DAY ADVENTIST CHURCH,"1414 SHAWANO AVE, GREEN BAY, WI 54303-3112",920-448-3010,,Religious,-88.0527,44.528076,2020 Spring Primary
BROWN COUNTY,CITY OF GREEN BAY,Ward 38,SAINT PAUL'S UNITED METHODIST CHURCH,"341 WILSON AVE, GREEN BAY, WI 54303-3016",920-448-3010,,Religious,-88.041913,44.528892,2020 Spring Primary
BROWN COUNTY,CITY OF GREEN BAY,Ward 39,BETHEL EVANGELICAL LUTHERAN CHURCH,"1350 BOND ST, GREEN BAY, WI 54303-4117",920-499-3010,,Religious,-88.04575,44.5335,2020 Spring Primary
BROWN COUNTY,CITY OF GREEN BAY,Ward 40,SAINT JUDE CATHOLIC CHURCH,"1420 DIVISION ST, GREEN BAY, WI 54303-3122",920-448-3010,,Religious,-88.050851,44.531614,2020 Spring Primary
BROWN COUNTY,CITY OF GREEN BAY,Ward 41,SAINT ELIZABETH SETON CHURCH,"2771 OAKWOOD DR, GREEN BAY, WI 54304-1618",920-448-3010,,Religious,-88.108483,44.51256,2020 Spring Primary
BROWN COUNTY,CITY OF GREEN BAY,Ward 42,LIVING HOPE CHURCH,"1840 W MASON ST, GREEN BAY, WI 54303-2333",920-448-3010,,Religious,-88.076895,44.525287,2020 Spring Primary
BROWN COUNTY,CITY OF GREEN BAY,Ward 43,LIVING HOPE CHURCH,"1840 W MASON ST, GREEN BAY, WI 54303-2333",920-448-3010,,Religious,-88.076895,44.525287,2020 Spring Primary
BROWN COUNTY,CITY OF GREEN BAY,Ward 44,BRIDGE POINT CHURCH,"2421 W POINT RD, GREEN BAY, WI 54304-1438",920-499-3010,,Religious,-88.090271,44.516393,2020 Spring Primary
BROWN COUNTY,CITY OF GREEN BAY,Ward 45,SAINT ELIZABETH SETON CHURCH,"2771 OAKWOOD DR, GREEN BAY, WI 54304-1618",920-448-3010,,Religious,-88.108483,44.51256,2020 Spring Primary
BROWN COUNTY,CITY OF GREEN BAY,Ward 46,CHURCH OF CHRIST,"2683 W POINT RD, GREEN BAY, WI 54304-1343",920-448-3010,,Religious,-88.103531,44.516391,2020 Spring Primary
BROWN COUNTY,CITY OF GREEN BAY,Ward 47,GREEN BAY BOTANICAL GARDENS,"2600 LARSEN RD, GREEN BAY, WI 54303-4841",920-448-3010,,Business,-88.09918,44.531736,2020 Spring Primary
BROWN COUNTY,TOWN OF EATON,Wards 1-2,EATON TOWN HALL,"3063 S COUNTY ROAD T, GREEN BAY, WI 54311-9429",920-863-2458,,Government,-87.825445,44.444985,2020 Spring Primary
BROWN COUNTY,TOWN OF GLENMORE,Wards 1-2,GLENMORE COMMUNITY CENTER,"5718 DICKINSON RD, DE PERE, WI 54115",920-864-2424,,Government,-87.948521,44.365259,2020 Spring Primary
BROWN COUNTY,TOWN OF GREEN BAY,Wards 1-3,GREEN BAY TOWN HALL,"5999 COUNTY ROAD K, NEW FRANKEN, WI 54229-9456",920-866-2687,,Government,-87.798994,44.589425,2020 Spring Primary
BROWN COUNTY,TOWN OF HOLLAND,Wards 1-2,HOLLAND TOWN HALL,"1671 HILL RD, GREENLEAF, WI 54126",920-532-0648,,Government,-88.092642,44.270353,2020 Spring Primary
BROWN COUNTY,TOWN OF HUMBOLDT,Wards 1-2,HUMBOLDT TOWN HALL,"5500 HUMBOLDT RD, GREEN BAY, WI 54311-9244",920-863-3370,,Government,-87.805166,44.501294,2020 Spring Primary
BROWN COUNTY,TOWN OF LAWRENCE,Wards 1-6,LAWRENCE TOWN HALL,"2400 SHADY CT, DE PERE, WI 54115-9410",920-347-3719,,Government,-88.150417,44.397272,2020 Spring Primary
BROWN COUNTY,TOWN OF LEDGEVIEW,Wards 1-10,LEDGEVIEW COMMUNITY CENTER,"3700 DICKINSON RD, DE PERE, WI 54115-8797",920-336-3360,,Government,-87.977193,44.423465,2020 Spring Primary
BROWN COUNTY,TOWN OF MORRISON,Wards 1-2,MORRISON TOWN HALL,"3792 PARK RD, GREENLEAF, WI 54126",920-864-2322,,Government,-87.949904,44.284244,2020 Spring Primary
BROWN COUNTY,TOWN OF NEW DENMARK,Wards 1-3,NEW DENMARK TOWN HALL,"5531 W TOWN HALL RD, DENMARK, WI 54208",920-863-3886,,Government,-87.831363,44.371631,2020 Spring Primary
BROWN COUNTY,TOWN OF PITTSFIELD,Wards 1-3,PITTSFIELD TOWN HALL,"3041 KUNESH NORTH RD, PULASKI, WI 54162",920-865-7907,,Government,-88.190789,44.622479,2020 Spring Primary
BROWN COUNTY,TOWN OF ROCKLAND,Wards 1-3,ROCKLAND TOWN HALL,"1712 BOB BEA JAN RD, DE PERE, WI 54115-8632",920-336-2814,,Government,-88.089247,44.396983,2020 Spring Primary
BROWN COUNTY,TOWN OF SCOTT,Wards 1-4,SCOTT TOWN HALL,"2621 JODY DR, NEW FRANKEN, WI 54229",920-406-9380,,Government,-87.896434,44.539561,2020 Spring Primary
BROWN COUNTY,TOWN OF WRIGHTSTOWN,Wards 1-3,WRIGHTSTOWN TOWN HALL,"1527 DAY ST, GREENLEAF, WI 54126-9746",920-532-0607,,Government,-88.101448,44.313816,2020 Spring Primary
BROWN COUNTY,VILLAGE OF ALLOUEZ,Wards 1-2,ALLOUEZ VILLAGE HALL,"1900 LIBAL ST, GREEN BAY, WI 54301-2453",920-448-2800,,Government,-88.012932,44.484651,2020 Spring Primary
BROWN COUNTY,VILLAGE OF ALLOUEZ,Wards 3-4,ALLOUEZ COMMUNITY CENTER,"2143 S WEBSTER AVE, GREEN BAY, WI 54301-2258",920-448-2800,,Government,-88.023187,44.481655,2020 Spring Primary
BROWN COUNTY,VILLAGE OF ALLOUEZ,Wards 5-6,GREEN ISLE PARK PAVILION,"900 GREENE AVE, GREEN BAY, WI 54301",920-448-2800,,Government,-88.010938,44.467041,2020 Spring Primary
BROWN COUNTY,VILLAGE OF ALLOUEZ,Wards 7-10,GREEN ISLE PARK PAVILION,"900 GREENE AVE, GREEN BAY, WI 54301",920-448-2800,,Government,-88.010938,44.467041,2020 Spring Primary
BROWN COUNTY,VILLAGE OF ASHWAUBENON,Wards 1-2,ASHWAUBENON COMMUNITY CENTER,"900 ANDERSON DR, GREEN BAY, WI 54304-5011",920-492-2302,,Government,-88.069259,44.48624,2020 Spring Primary
BROWN COUNTY,VILLAGE OF ASHWAUBENON,Wards 3-4,ASHWAUBENON VILLAGE HALL,"2155 HOLMGREN WAY, ASHWAUBENON, WI 54304-4605",(920) 492-2302,,Government,-88.057408,44.490971,2020 Spring Primary
BROWN COUNTY,VILLAGE OF ASHWAUBENON,Wards 5-6,ASHWAUBENON COMMUNITY CENTER,"900 ANDERSON DR, GREEN BAY, WI 54304-5011",920-492-2302,,Government,-88.069259,44.48624,2020 Spring Primary
BROWN COUNTY,VILLAGE OF ASHWAUBENON,Wards 7-8,ASHWAUBENON FIRE STATION NO. 2,"1310 PONDEROSA AVE, GREEN BAY, WI 54313",(920) 492-2302,,Government,-88.090385,44.486166,2020 Spring Primary
BROWN COUNTY,VILLAGE OF ASHWAUBENON,Wards 9-10,SAINT JOHN LUTHERAN CHURCH,"2700 BABCOCK RD, GREEN BAY, WI 54313-6020",(920) 492-2302,,Religious,-88.103189,44.487255,2020 Spring Primary
BROWN COUNTY,VILLAGE OF ASHWAUBENON,Wards 11-12,ASHWAUBENON SCHOOL DISTRICT OFFICE,"1055 GRIFFITHS LN, GREEN BAY, WI 54304-5507",(920) 492-2302,,Government,-88.084435,44.475073,2020 Spring Primary
BROWN COUNTY,VILLAGE OF BELLEVUE,Wards 1-6,BELLEVUE COMMUNITY CENTER/FIRE STATION,"1811 ALLOUEZ AVE, GREEN BAY, WI 54311-6235",4685225,,Government,-87.991442,44.469342,2020 Spring Primary
BROWN COUNTY,VILLAGE OF BELLEVUE,Wards 7-10,BELLEVUE PUBLIC SAFETY BUILDING/VILLAGE HALL,"3100 EATON RD, GREEN BAY, WI 54311-6827",920-468-5225,,Government,-87.926689,44.465712,2020 Spring Primary
BROWN COUNTY,VILLAGE OF DENMARK,Wards 1-4,DENMARK VILLAGE HALL,"118 E MAIN ST, DENMARK, WI 54208",920-863-6400,,Government,-87.82777,44.348083,2020 Spring Primary
BROWN COUNTY,VILLAGE OF HOBART,Wards 1-9,St. Joseph Church,"145 SAINT JOSEPH DR, HOBART, WI 54155",920-869-3802,Lower Level,Religious,-88.188188,44.506554,2020 Spring Primary
BROWN COUNTY,VILLAGE OF HOWARD,"Wards 1-2,9-14,18",GREEN BAY COMMUNITY CHURCH,"600 CARDINAL LN, GREEN BAY, WI 54313-6731",4349225,,Religious,-88.079772,44.557612,2020 Spring Primary
BROWN COUNTY,VILLAGE OF HOWARD,Wards 3-6,HOWARD VILLAGE HALL,"2456 GLENDALE AVE, GREEN BAY, WI 54313-6502",920-434-4640,,Government,-88.077356,44.562573,2020 Spring Primary
BROWN COUNTY,VILLAGE OF HOWARD,Wards 7-8,MEADOWBROOK CHRUCH,"701 HILLCREST HTS, GREEN BAY, WI 54313",920-434-4640,,Religious,-88.101692,44.560818,2020 Spring Primary
BROWN COUNTY,VILLAGE OF HOWARD,Wards 15-16,Howard Fire Station #2,"4165 SHAWANO AVE, GREEN BAY, WI 54313-7550",920-434-4640,,Government,-88.143875,44.576489,2020 Spring Primary
BROWN COUNTY,VILLAGE OF PULASKI,"Wards 1-3,6",Pulaski Municipal Building,"585 E GLENBROOK DR, PULASKI, WI 54162-9769",,,Government,-88.228203,44.665123,2020 Spring Primary
BROWN COUNTY,VILLAGE OF SUAMICO,Wards 1-4,IDLEWILD PARK BUILDING,"1500 COTTON DR, SUAMICO, WI 54173",920-434-2212,,Government,-88.042857,44.623977,2020 Spring Primary
BROWN COUNTY,VILLAGE OF SUAMICO,Wards 5-8,SUAMICO MUNICIPAL SERVICES CENTER,"12781 VELP AVE, SUAMICO, WI 54313-8030",920-434-2212,,Government,-88.069403,44.617727,2020 Spring Primary
BROWN COUNTY,VILLAGE OF WRIGHTSTOWN,Wards 1-3,WRIGHTSTOWN VILLAGE HALL ,"352 HIGH ST, WRIGHTSTOWN, WI 54180-1130",920-532-5567,COMMUNITY ROOM,Government,-88.158598,44.321967,2020 Spring Primary
BUFFALO COUNTY,CITY OF ALMA,Wards 1-2,ALMA CITY HALL,"314 N MAIN ST, ALMA, WI 54610-7713",608-685-3330,Council Chambers,Government,-91.917871,44.32492,2020 Spring Primary
BUFFALO COUNTY,CITY OF BUFFALO CITY,Ward 1,BUFFALO MUNICIPAL BUILDING,"245 E 10TH ST, BUFFALO CITY, WI 54622-7324",608-248-2262,,Government,-91.85137,44.230125,2020 Spring Primary
BUFFALO COUNTY,CITY OF FOUNTAIN CITY,Wards 1-2,FOUNTAIN CITY AUDITORIUM,"42 N MAIN ST, FOUNTAIN CITY, WI 54629-8705",608-687-7481,,Government,-91.717449,44.132035,2020 Spring Primary
BUFFALO COUNTY,CITY OF MONDOVI,Wards 1-3,Roger Marten Community Center,"120 S FRANKLIN ST, MONDOVI, WI 54755",715-926-3866,,Government,-91.671759,44.567388,2020 Spring Primary
BUFFALO COUNTY,TOWN OF ALMA,Ward 1,ALMA TOWN HALL,"S1445 COUNTY ROAD F, ALMA, WI 54610-8317",(608) 685-3843,,Government,-91.849512,44.38561,2020 Spring Primary
BUFFALO COUNTY,TOWN OF BELVIDERE,Ward 1,COCHRANE VFW POST 10406,"100 MICHAELS ST, COCHRANE, WI 54622",608-685-3771,,Business,-91.834258,44.224563,2020 Spring Primary
BUFFALO COUNTY,TOWN OF BUFFALO,Ward 1,BUFFALO COMMUNITY PARK,"W387 STATE ROAD 35/54, FOUNTAIN CITY, WI 54629",608-687-7591,,Government,-91.601341,44.068824,2020 Spring Primary
BUFFALO COUNTY,TOWN OF CANTON,Ward 1,CANTON TOWN HALL,"S290 COUNTY ROAD J, NELSON, WI 54756",000-000-0000,,Government,-91.839177,44.553217,2020 Spring Primary
BUFFALO COUNTY,TOWN OF CROSS,Ward 1,CROSS TOWN HALL,"W614 BUEHLER VALLEY RD, FOUNTAIN CITY, WI 54629-7603",(608) 687-3228,,Government,-91.654089,44.152128,2020 Spring Primary
BUFFALO COUNTY,TOWN OF DOVER,Ward 1,DOVER TOWN HALL,"W248 STATE ROAD 121, MONDOVI, WI 54755",(715) 946-3506,,Government,-91.579307,44.458694,2020 Spring Primary
BUFFALO COUNTY,TOWN OF GILMANTON,Ward 1,GILMANTON TOWN HALL,"W736 COUNTY ROAD B, MONDOVI, WI 54755-8004",(715) 946-3620,,Government,-91.677519,44.46902,2020 Spring Primary
BUFFALO COUNTY,TOWN OF GLENCOE,Ward 1,GLENCOE TOWN HALL,"W104 STATE ROAD 95, ARCADIA, WI 54612",(608) 323-7405,,Government,-91.55058,44.254202,2020 Spring Primary
BUFFALO COUNTY,TOWN OF LINCOLN,Ward 1,LINCOLN TOWN HALL,"S1491 STATE ROAD 88, ALMA, WI 54610",608-685-4841,,Government,-91.751129,44.379152,2020 Spring Primary
BUFFALO COUNTY,TOWN OF MAXVILLE,Ward 1,MAXVILLE TOWN HALL,"S451 STATE ROAD 25, DURAND, WI 54736-8021",715-672-5524,,Government,-92.009203,44.531387,2020 Spring Primary
BUFFALO COUNTY,TOWN OF MILTON,Ward 1,Milton Town Hall,"S2794 STATE ROAD 88, FOUNTAIN CITY, WI 54629",608-687-4800,,Government,-91.773927,44.18786,2020 Spring Primary
BUFFALO COUNTY,TOWN OF MODENA,Ward 1,MODENA TOWN HALL,"S946 COUNTY ROAD J, MONDOVI, WI 54755",715-673-4958,,Government,-91.796882,44.462642,2020 Spring Primary
BUFFALO COUNTY,TOWN OF MONDOVI,Ward 1,Mondovi City Hall,"156 S FRANKLIN ST, MONDOVI, WI 54755-1514",715-926-3866,Council Chambers,Government,-91.671844,44.567023,2020 Spring Primary
BUFFALO COUNTY,TOWN OF MONTANA,Ward 1,MONTANA TOWN HALL,"S1601 COUNTY ROAD U, INDEPENDENCE, WI 54747",608-323-3767,,Government,-91.662644,44.363138,2020 Spring Primary
BUFFALO COUNTY,TOWN OF NAPLES,Ward 1,NAPLES TOWN HALL,"S283 COUNTY ROAD BB, MONDOVI, WI 54755",(715) 926-4692,,Government,-91.590316,44.555196,2020 Spring Primary
BUFFALO COUNTY,TOWN OF NELSON,Ward 1,NELSON TOWN HALL,"W2164 COUNTY ROAD D, NELSON, WI 54756-8321",715-673-4946,,Government,-91.967273,44.439643,2020 Spring Primary
BUFFALO COUNTY,TOWN OF WAUMANDEE,Ward 1,WAUMANDEE FIRE STATION,"S2004 COUNTY ROAD U, WAUMANDEE, WI 54622",608-626-3031,,Government,-91.703462,44.304533,2020 Spring Primary
BUFFALO COUNTY,VILLAGE OF COCHRANE,Ward 1,COCHRANE VILLAGE HALL,"102 E 5TH ST, COCHRANE, WI 54622",608-248-2737,,Government,-91.835182,44.227882,2020 Spring Primary
BUFFALO COUNTY,VILLAGE OF NELSON,Ward 1,NELSON VILLAGE HALL,"N104 N MAIN ST, NELSON, WI 54756",715-673-4748,,Government,-92.008593,44.420329,2020 Spring Primary
BURNETT COUNTY,TOWN OF ANDERSON,Ward 1,ANDERSON TOWN HALL,"13808 ANDERSON RD, GRANTSBURG, WI 54840",715-488-2911,,Government,-92.693859,45.675642,2020 Spring Primary
BURNETT COUNTY,TOWN OF BLAINE,Ward 1,NORTHLAND COMMUNITY CENTER,"1232 E SCHOOL RD, DANBURY, WI 54830-9014",715-244-3910,,Government,-92.235464,46.164326,2020 Spring Primary
BURNETT COUNTY,TOWN OF DANIELS,Ward 1,DANIELS TOWN HALL,"9697 DANIELS 70, SIREN, WI 54872",715-689-2360,,Government,-92.477755,45.767884,2020 Spring Primary
BURNETT COUNTY,TOWN OF DEWEY,Ward 1,DEWEY TOWN HALL,"24433 TOWN HALL RD, HERTEL, WI 54845",715-468-7669,,Government,-92.115282,45.799125,2020 Spring Primary
BURNETT COUNTY,TOWN OF GRANTSBURG,Wards 1-3,TOWN OF GRANTSBURG HALL/OFFICE,"216 S OAK ST, GRANTSBURG, WI 54840",715-463-5600,,Government,-92.683768,45.777678,2020 Spring Primary
BURNETT COUNTY,TOWN OF JACKSON,Ward 1,JACKSON TOWN HALL,"4599 COUNTY ROAD A, WEBSTER, WI 54893-8874",715-866-8404,,Government,-92.217488,45.930124,2020 Spring Primary
BURNETT COUNTY,TOWN OF LA FOLLETTE,Wards 1-2,LAFOLLETTE TOWN HALL,"24184 MALONE RD, WEBSTER, WI 54893-9203",715-349-2531,,Government,-92.282834,45.791092,2020 Spring Primary
BURNETT COUNTY,TOWN OF LINCOLN,Ward 1,LINCOLN TOWN HALL,"9110 PERIDA RD, WEBSTER, WI 54893",715-866-7082,,Government,-92.452106,45.891987,2020 Spring Primary
BURNETT COUNTY,TOWN OF MEENON,Wards 1-3,MEENON TOWN HALL,"7396 KRUGER RD, WEBSTER, WI 54893-8651",715-866-4893,,Government,-92.36419,45.842404,2020 Spring Primary
BURNETT COUNTY,TOWN OF OAKLAND,Wards 1-2,OAKLAND TOWN HALL,"27826 LONE PINE RD, WEBSTER, WI 54893",715-866-8213,,Government,-92.367319,45.924723,2020 Spring Primary
BURNETT COUNTY,TOWN OF ROOSEVELT,Ward 1,TIMBERLAND LUTHERN CHURCH,"20805 COUNTY ROAD H, BARRONETT, WI 54813-9508",715-468-4403,,Religious,-92.104078,45.669256,2020 Spring Primary
BURNETT COUNTY,TOWN OF RUSK,Ward 1,RUSK TOWN HALL,"25195 COUNTY ROAD H, SPOONER, WI 54801",715-468-7699,,Government,-92.094304,45.829569,2020 Spring Primary
BURNETT COUNTY,TOWN OF SAND LAKE,Ward 1,SAND LAKE TOWN HALL,"5364 COUNTY ROAD X, WEBSTER, WI 54893",715-866-4398,,Government,-92.253272,45.859548,2020 Spring Primary
BURNETT COUNTY,TOWN OF SCOTT,Wards 1-2,SCOTT TOWN HALL,"28390 COUNTY ROAD H, SPOONER, WI 54801-8961",715-635-2308,,Government,-92.104228,45.942487,2020 Spring Primary
BURNETT COUNTY,TOWN OF SIREN,Wards 1-2,SIREN T0WN SHOP,"7240 S LONG LAKE RD, SIREN, WI 54872",715-349-7677,,Government,-92.352526,45.766548,2020 Spring Primary
BURNETT COUNTY,TOWN OF SWISS,Wards 1-2,SWISS TOWN HALL,"7551 MAIN ST, DANBURY, WI 54830-4405",715-656-30,,Government,-92.371513,46.006685,2020 Spring Primary
BURNETT COUNTY,TOWN OF TRADE LAKE,Wards 1-2,TRADE LAKE TOWN HALL,"11810 TOWN HALL RD, FREDERIC, WI 54837-9649",715-488-2600,,Government,-92.5905,45.68895,2020 Spring Primary
BURNETT COUNTY,TOWN OF UNION,Ward 1,UNION TOWN HALL,"9015 COUNTY ROAD F, DANBURY, WI 54830-9121",715-866-7182,,Government,-92.44712,45.952404,2020 Spring Primary
BURNETT COUNTY,TOWN OF WEBB LAKE,Ward 1,WEBB LAKE TOWN HALL,"31000 NAMEKAGON TRL, WEBB LAKE, WI 54830-8915",715-259-7947,,Government,-92.112128,46.036007,2020 Spring Primary
BURNETT COUNTY,TOWN OF WEST MARSHLAND,Wards 1-2,WEST MARSHLAND TOWN HALL,"12259 COUNTY ROAD F, GRANTSBURG, WI 54840-7320",000-000-0000,,Government,-92.609762,45.899728,2020 Spring Primary
BURNETT COUNTY,TOWN OF WOOD RIVER,Wards 1-3,CALVERY COVENANT CHURCH,"11530 STATE ROAD 70, GRANTSBURG, WI 54840",715-689-2318,,Government,-92.575908,45.772668,2020 Spring Primary
BURNETT COUNTY,VILLAGE OF GRANTSBURG,Wards 1-3,GRANTSBURG VILLAGE HALL,"316 S BRAD ST, GRANTSBURG, WI 54840-7944",715-463-2405,,Government,-92.679633,45.77676,2020 Spring Primary
BURNETT COUNTY,VILLAGE OF SIREN,Wards 1-2,SIREN VILLAGE HALL,"24049 1ST AVE, SIREN, WI 54872",715-349-2273,Meeting Room,Government,-92.382758,45.786672,2020 Spring Primary
BURNETT COUNTY,VILLAGE OF WEBSTER,Wards 1-2,WEBSTER COMMUNITY CENTER,"7421 MAIN ST W, WEBSTER, WI 54893-8207",715-866-4211,,Government,-92.365934,45.877064,2020 Spring Primary
CALUMET COUNTY,CITY OF APPLETON,Ward 12,PRINCE OF PEACE LUTHERAN CHURCH,"2330 E CALUMET ST, APPLETON, WI 54915-4253",(920) 832-6447,Community Room,Religious,-88.370489,44.244511,2020 Spring Primary
CALUMET COUNTY,CITY OF APPLETON,Ward 13,PRINCE OF PEACE LUTHERAN CHURCH,"2330 E CALUMET ST, APPLETON, WI 54915-4253",(920) 832-6447,Community Room,Religious,-88.370489,44.244511,2020 Spring Primary
CALUMET COUNTY,CITY OF APPLETON,Ward 14,PRINCE OF PEACE LUTHERAN CHURCH,"2330 E CALUMET ST, APPLETON, WI 54915-4253",(920) 832-6447,Community Room,Religious,-88.370489,44.244511,2020 Spring Primary
CALUMET COUNTY,CITY OF APPLETON,Ward 26,FIRST CONGREGATIONAL UNITED CHURCH OF CHRIST,"724 E SOUTH RIVER STREET, APPLETON, WI 54915",920-832-6447,,Religious,-88.393138,44.254481,2020 Spring Primary
CALUMET COUNTY,CITY OF APPLETON,Ward 44,HOPE LUTHERAN BRETHREN CHURCH,"415 E HOOVER AVE, APPLETON, WI 54915-2012",920-832-6447,,Religious,-88.399234,44.238187,2020 Spring Primary
CALUMET COUNTY,CITY OF APPLETON,Ward 45,HOPE LUTHERAN BRETHREN CHURCH,"415 E HOOVER AVE, APPLETON, WI 54915-2012",920-832-6447,,Religious,-88.399234,44.238187,2020 Spring Primary
CALUMET COUNTY,CITY OF APPLETON,Ward 46,HOPE LUTHERAN BRETHREN CHURCH,"415 E HOOVER AVE, APPLETON, WI 54915-2012",920-832-6447,,Religious,-88.399234,44.238187,2020 Spring Primary
CALUMET COUNTY,CITY OF APPLETON,Ward 47,HOPE LUTHERAN BRETHREN CHURCH,"415 E HOOVER AVE, APPLETON, WI 54915-2012",920-832-6447,,Religious,-88.399234,44.238187,2020 Spring Primary
CALUMET COUNTY,CITY OF BRILLION,Wards 1-5,BRILLION CITY CENTER,"201 N. MAIN STREET, BRILLION, WI 54110-1221",920-756-3216,,Government,-88.065024,44.178433,2020 Spring Primary
CALUMET COUNTY,CITY OF CHILTON,Wards 1-5,CHILTON CITY HALL,"42 SCHOOL ST, CHILTON, WI 53014-1346",920-849-2451,,Government,-88.164577,44.029296,2020 Spring Primary
CALUMET COUNTY,CITY OF KAUKAUNA,Ward 11,Kaukauna Municipal Services Building,"144 W 2ND ST, KAUKAUNA, WI 54130-2406",,Council Chambers,Government,-88.271941,44.278988,2020 Spring Primary
CALUMET COUNTY,CITY OF KIEL,"Wards 7,10",KIEL COMMUNITY CENTER,"510 3RD ST, KIEL, WI 53042-1454",902-894-2909,LOWER LEVEL,Government,-88.032064,43.911464,2020 Spring Primary
CALUMET COUNTY,CITY OF MENASHA,Wards 16-20,WINNEGAMIE DOG CLUB,"2043 MANITOWOC RD, MENASHA, WI 54952-8948",(920) 967-3603,,Business,-88.399621,44.219692,2020 Spring Primary
CALUMET COUNTY,CITY OF NEW HOLSTEIN,Wards 1-5,NEW HOLSTEIN CITY HALL,"2110 WASHINGTON ST, NEW HOLSTEIN, WI 53061-1045",920-898-5766,,Government,-88.095232,43.951705,2020 Spring Primary
CALUMET COUNTY,TOWN OF BRILLION,Wards 1-2,Brillion Municipal Building,"N8892 RANDOLPH ST, FOREST JUNCTION, WI 54123",(920) 989-1602,,Government,-88.135378,44.211852,2020 Spring Primary
CALUMET COUNTY,TOWN OF BROTHERTOWN,Wards 1-2,BROTHERTOWN TOWN HALL,"W3880 SAINT CHARLES RD, CHILTON, WI 53014-9679",920-418-0949,,Government,-88.230267,43.970354,2020 Spring Primary
CALUMET COUNTY,TOWN OF CHARLESTOWN,Ward 1,CHARLESTOWN TOWN HALL,"N3685 COUNTY ROAD T, CHILTON, WI 53014",920-849-2885,,Government,-88.113182,44.021517,2020 Spring Primary
CALUMET COUNTY,TOWN OF CHILTON,Wards 1-3,Chilton Town Hall,"N4569 COUNTY ROAD BB, CHILTON, WI 53014-9768",(920) 849-4720,,Government,-88.204151,44.05827,2020 Spring Primary
CALUMET COUNTY,TOWN OF NEW HOLSTEIN,Wards 1-3,NEW HOLSTEIN TOWN HALL,"W1465 TECUMSEH RD, NEW HOLSTEIN, WI 53061",920-898-4606,,Government,-88.11,43.963823,2020 Spring Primary
CALUMET COUNTY,TOWN OF RANTOUL,Ward 1,POTTER VILLAGE HALL,"309 CENTRAL ST, POTTER, WI 54160",920-588-7013,,Government,-88.099145,44.118429,2020 Spring Primary
CALUMET COUNTY,TOWN OF STOCKBRIDGE,Wards 1-3,STOCKBRIDGE FIRE STATION,"175 S MILITARY RD, STOCKBRIDGE, WI 53088",920-439-1400,,Government,-88.300265,44.070321,2020 Spring Primary
CALUMET COUNTY,TOWN OF WOODVILLE,Ward 1,WOODVILLE TOWN HALL,"W3350 COUNTY ROAD B, HILBERT, WI 54129-9326",920-989-1459,,Government,-88.207146,44.169485,2020 Spring Primary
CALUMET COUNTY,VILLAGE OF HARRISON,Wards 3-4,Christ the Rock,"W6254 US HWY 10 114, MENASHA, WI 54952",920-730-8383,Auditorium,Religious,-88.351508,44.209452,2020 Spring Primary
CALUMET COUNTY,VILLAGE OF HARRISON,"Wards 5-6,10",Harrison Municipal Building,"W5298 HWY 114, MENASHA, WI 54952",920-989-1062,,Government,-88.302551,44.196637,2020 Spring Primary
CALUMET COUNTY,VILLAGE OF HARRISON,"Wards 7-9,14",Harrison Municipal Building,"W5298 HWY 114, MENASHA, WI 54952",920-989-1062,,Government,-88.302551,44.196637,2020 Spring Primary
CALUMET COUNTY,VILLAGE OF HARRISON,Wards 11-13,Christ the Rock,"W6254 US HWY 10 114, MENASHA, WI 54952",920-730-8383,Auditorium,Religious,-88.351508,44.209452,2020 Spring Primary
CALUMET COUNTY,VILLAGE OF HARRISON,Ward 15,Harrison Municipal Building,"W5298 HWY 114, MENASHA, WI 54952",920-989-1062,,Government,-88.302551,44.196637,2020 Spring Primary
CALUMET COUNTY,VILLAGE OF HARRISON,Ward 16,Harrison Municipal Building,"W5298 HWY 114, MENASHA, WI 54952",920-989-1062,,Government,-88.302551,44.196637,2020 Spring Primary
CALUMET COUNTY,VILLAGE OF HARRISON,Ward 17,Christ the Rock,"W6254 US HWY 10 114, MENASHA, WI 54952",920-730-8383,Auditorium,Religious,-88.351508,44.209452,2020 Spring Primary
CALUMET COUNTY,VILLAGE OF HARRISON,Ward 18,Christ the Rock,"W6254 US HWY 10 114, MENASHA, WI 54952",920-730-8383,Auditorium,Religious,-88.351508,44.209452,2020 Spring Primary
CALUMET COUNTY,VILLAGE OF HILBERT,Wards 1-3,HILBERT VILLAGE HALL,"26 N 6TH ST, HILBERT, WI 54129-9593",920-853-3241,,Government,-88.161175,44.142146,2020 Spring Primary
CALUMET COUNTY,VILLAGE OF POTTER,Ward 1,POTTER VILLAGE HALL,"309 CENTRAL ST, POTTER, WI 54160",920-588-7013,,Government,-88.099145,44.118429,2020 Spring Primary
CALUMET COUNTY,VILLAGE OF SHERWOOD,Wards 1-5,SHERWOOD VILLAGE HALL - GYM,"W482 CLIFTON RD, SHERWOOD, WI 54169-9767",920-989-1589,GYM,Government,-88.263847,44.174001,2020 Spring Primary
CALUMET COUNTY,VILLAGE OF STOCKBRIDGE,Ward 1,STOCKBRIDGE FIRE STATION,"175 S MILITARY RD, STOCKBRIDGE, WI 53088",920-439-1400,,Government,-88.300265,44.070321,2020 Spring Primary
CHIPPEWA COUNTY,CITY OF BLOOMER,Wards 1-4,BLOOMER ELECTRIC SHOP,"402 26TH AVE, BLOOMER, WI 54724-5001",715-568-4444,,Government,-91.478244,45.090785,2020 Spring Primary
CHIPPEWA COUNTY,CITY OF CHIPPEWA FALLS,Ward 1,CHIPPEWA FALLS SENIOR CENTER,"1000 E GRAND AVE, CHIPPEWA FALLS, WI 54729-2734",715-720-1666,,Private,-91.382111,44.94444,2020 Spring Primary
CHIPPEWA COUNTY,CITY OF CHIPPEWA FALLS,Ward 2,OUR SAVIOUR'S LUTHERAN CHURCH,"1300 MANSFIELD ST, CHIPPEWA FALLS, WI 54729",715-723-6048,,Religious,-91.4170995,44.937054,2020 Spring Primary
CHIPPEWA COUNTY,CITY OF CHIPPEWA FALLS,Ward 3B,OUR SAVIOUR'S LUTHERAN CHURCH,"1300 MANSFIELD ST, CHIPPEWA FALLS, WI 54729",715-723-6048,,Religious,-91.4170995,44.937054,2020 Spring Primary
CHIPPEWA COUNTY,CITY OF CHIPPEWA FALLS,Ward 3,OUR SAVIOUR'S LUTHERAN CHURCH,"1300 MANSFIELD ST, CHIPPEWA FALLS, WI 54729",715-723-6048,,Religious,-91.4170995,44.937054,2020 Spring Primary
CHIPPEWA COUNTY,CITY OF CHIPPEWA FALLS,Ward 3A,OUR SAVIOUR'S LUTHERAN CHURCH,"1300 MANSFIELD ST, CHIPPEWA FALLS, WI 54729",715-723-6048,,Religious,-91.4170995,44.937054,2020 Spring Primary
CHIPPEWA COUNTY,CITY OF CHIPPEWA FALLS,Ward 4,CHIPPEWA FALLS PUBLIC LIBRARY,"105 W CENTRAL ST, CHIPPEWA FALLS, WI 54729-2369",715-723-1146,,Private,-91.39379,44.93515,2020 Spring Primary
CHIPPEWA COUNTY,CITY OF CHIPPEWA FALLS,Ward 5,CHIPPEWA FALLS SENIOR CENTER,"1000 E GRAND AVE, CHIPPEWA FALLS, WI 54729-2734",715-720-1666,,Private,-91.382111,44.94444,2020 Spring Primary
CHIPPEWA COUNTY,CITY OF CHIPPEWA FALLS,Ward 6,FAITH LUTHERAN CHURCH,"733 WOODWARD AVE, CHIPPEWA FALLS, WI 54729-3283",715-723-7754,,Religious,-91.387171,44.918082,2020 Spring Primary
CHIPPEWA COUNTY,CITY OF CHIPPEWA FALLS,Ward 7,FAITH LUTHERAN CHURCH,"733 WOODWARD AVE, CHIPPEWA FALLS, WI 54729-3283",715-723-7754,,Religious,-91.387171,44.918082,2020 Spring Primary
CHIPPEWA COUNTY,CITY OF CHIPPEWA FALLS,Ward 7A,FAITH LUTHERAN CHURCH,"733 WOODWARD AVE, CHIPPEWA FALLS, WI 54729-3283",715-723-7754,,Religious,-91.387171,44.918082,2020 Spring Primary
CHIPPEWA COUNTY,CITY OF CORNELL,Wards 1-4,CORNELL CITY COUNCIL CHAMBERS,"102 N 3RD ST, CORNELL, WI 54732",715-239-3710,,Government,-91.149212,45.16758,2020 Spring Primary
CHIPPEWA COUNTY,CITY OF EAU CLAIRE,Ward 16,FIRE STATION#8,"3510 STARR AVE, EAU CLAIRE, WI 54703-0532",,,Government,-91.478679,44.859239,2020 Spring Primary
CHIPPEWA COUNTY,CITY OF EAU CLAIRE,Ward 40,FIRE STATION#8,"3510 STARR AVE, EAU CLAIRE, WI 54703-0532",,,Government,-91.478679,44.859239,2020 Spring Primary
CHIPPEWA COUNTY,CITY OF EAU CLAIRE,Ward 41,FIRE STATION#8,"3510 STARR AVE, EAU CLAIRE, WI 54703-0532",,,Government,-91.478679,44.859239,2020 Spring Primary
CHIPPEWA COUNTY,CITY OF STANLEY,"Wards 1-4,6-7",STANLEY FIRE STATION,"239 E 1ST AVE, STANLEY, WI 54768",715-644-5564,,Government,-90.933009,44.960018,2020 Spring Primary
CHIPPEWA COUNTY,TOWN OF ANSON,Wards 1-3,ANSON TOWN HALL,"13836 COUNTY HIGHWAY S S, JIM FALLS, WI 54748-1619",715-382-4840,,Government,-91.27503,45.044538,2020 Spring Primary
CHIPPEWA COUNTY,TOWN OF ANSON,Ward 4,ANSON TOWN HALL,"13836 COUNTY HIGHWAY S S, JIM FALLS, WI 54748-1619",715-382-4840,,Government,-91.27503,45.044538,2020 Spring Primary
CHIPPEWA COUNTY,TOWN OF ARTHUR,Ward 1,ARTHUR TOWN HALL,"25091 COUNTY HWY S, CADOTT, WI 54727-5007",715-289-3113,,Government,-91.163875,45.049703,2020 Spring Primary
CHIPPEWA COUNTY,TOWN OF AUBURN,Ward 1,AUBURN TOWN HALL,"3826 STATE HIGHWAY 64, BLOOMER, WI 54724-4013",715-568-5535,,Government,-91.607646,45.14277,2020 Spring Primary
CHIPPEWA COUNTY,TOWN OF BIRCH CREEK,Ward 1,BIRCH CREEK TOWN HALL,"26755 240TH ST, HOLCOMBE, WI 54745",715-595-4996,,Government,-91.193032,45.230966,2020 Spring Primary
CHIPPEWA COUNTY,TOWN OF BLOOMER,Wards 1-2,BLOOMER TOWN HALL,"21281 STATE HIGHWAY 40, BLOOMER, WI 54724",(715) 568-4409,,Government,-91.439436,45.160331,2020 Spring Primary
CHIPPEWA COUNTY,TOWN OF CLEVELAND,Ward 1,CLEVELAND TOWN HALL,"20470 STATE HIGHWAY 64, CORNELL, WI 54732-5424",715-288-6009,,Government,-91.264571,45.138078,2020 Spring Primary
CHIPPEWA COUNTY,TOWN OF COLBURN,Ward 1,COLBURN TOWN HALL,"18476 COUNTY HIGHWAY S N, STANLEY, WI 54768",715-447-5744,,Government,-90.987881,45.110537,2020 Spring Primary
CHIPPEWA COUNTY,TOWN OF COOKS VALLEY,Ward 1,COOKS VALLEY TOWN HALL,"15751 40TH ST, BLOOMER, WI 54724",(715) 568-2037,,Business,-91.590416,45.070077,2020 Spring Primary
CHIPPEWA COUNTY,TOWN OF DELMAR,Ward 1,DELMAR TOWN HALL,"11528 320TH ST, BOYD, WI 54726",715-667-5374,,Government,-91.025335,45.009711,2020 Spring Primary
CHIPPEWA COUNTY,TOWN OF EAGLE POINT,Wards 1-5,EAGLE POINT TOWN HALL,"14802 STATE HIGHWAY 124, CHIPPEWA FALLS, WI 54729-6139",715-288-6770,,Government,-91.389808,45.058402,2020 Spring Primary
CHIPPEWA COUNTY,TOWN OF EDSON,Wards 1-2,EDSON TOWN HALL,"31595 COUNTY HIGHWAY MM, BOYD, WI 54726",715-667-3417,,Government,-91.032717,44.929358,2020 Spring Primary
CHIPPEWA COUNTY,TOWN OF ESTELLA,Ward 1,ESTELLA TOWN HALL,"22111 270TH ST, CORNELL, WI 54732",715-239-6795,,Government,-91.130937,45.164747,2020 Spring Primary
CHIPPEWA COUNTY,TOWN OF GOETZ,Wards 1-2,GOETZ TOWN HALL,"8985 257TH ST, CADOTT, WI 54727",715-289-4599,,Government,-91.151473,44.973273,2020 Spring Primary
CHIPPEWA COUNTY,TOWN OF GOETZ,Ward 3,GOETZ TOWN HALL,"8985 257TH ST, CADOTT, WI 54727",715-289-4599,,Government,-91.151473,44.973273,2020 Spring Primary
CHIPPEWA COUNTY,TOWN OF HALLIE,Ward 1,LAKE HALLIE SANITARY DISTRICT BUILDING,"13034 30TH AVE, CHIPPEWA FALLS, WI 54729",715-723-3085,,Government,-91.406758,44.885828,2020 Spring Primary
CHIPPEWA COUNTY,TOWN OF HOWARD,Ward 1,HOWARD TOWN HALL AND FIRE STATION,"4052 COUNTY HIGHWAY B, COLFAX, WI 54730",715-568-5525,,Government,-91.58919,45.008947,2020 Spring Primary
CHIPPEWA COUNTY,TOWN OF LAFAYETTE,Wards 1-9,LAFAYETTE TOWN HALL,"5765 197TH ST, CHIPPEWA FALLS, WI 54729-9128",715-723-7692,,Government,-91.273944,44.926204,2020 Spring Primary
CHIPPEWA COUNTY,TOWN OF LAKE HOLCOMBE,Wards 1-2,LAKE HOLCOMBE TOWN HALL,"26194 276TH ST, HOLCOMBE, WI 54745",715-595-6586,,Government,-91.117097,45.222864,2020 Spring Primary
CHIPPEWA COUNTY,TOWN OF RUBY,Ward 1,RUBY TOWN HALL,"33150 280TH AVE, SHELDON, WI 54766-5634",715-452-5657,,Government,-91.003945,45.249256,2020 Spring Primary
CHIPPEWA COUNTY,TOWN OF SAMPSON,Ward 1,SAMPSON TOWN HALL,"10770 270TH AVE, NEW AUBURN, WI 54757-8017",715-967-20,,Government,-91.464078,45.235447,2020 Spring Primary
CHIPPEWA COUNTY,TOWN OF SIGEL,Wards 1-2,SIGEL TOWN HALL,"5511 STATE HIGHWAY 27, CADOTT, WI 54727",715-289-3429,,Government,-91.145371,44.922687,2020 Spring Primary
CHIPPEWA COUNTY,TOWN OF TILDEN,Wards 1-3,TILDEN TOWN HALL,"10790 100TH AVE, CHIPPEWA FALLS, WI 54729-6237",715-288-6452,,Government,-91.452394,44.987871,2020 Spring Primary
CHIPPEWA COUNTY,TOWN OF WHEATON,Wards 1-3,WHEATON TOWN HALL,"4975 COUNTY HIGHWAY T, CHIPPEWA FALLS, WI 54729",715-874-5982,,Government,-91.548711,44.914989,2020 Spring Primary
CHIPPEWA COUNTY,TOWN OF WOODMOHR,Wards 1-2,WOODMOHR TOWN HALL,"16738 125TH ST, BLOOMER, WI 54724",715-568-4328,,Government,-91.417981,45.085494,2020 Spring Primary
CHIPPEWA COUNTY,VILLAGE OF BOYD,Ward 1,BOYD VILLAGE HALL,"705 E MURRAY ST, BOYD, WI 54726-9068",715-667-3420,,Government,-91.036874,44.951337,2020 Spring Primary
CHIPPEWA COUNTY,VILLAGE OF CADOTT,Wards 1-3,CADOTT AREA FIRE STATION,"436 HARTFORD ST, CADOTT, WI 54727",(715) 289-4282,,Government,-91.145218,44.942992,2020 Spring Primary
CHIPPEWA COUNTY,VILLAGE OF LAKE HALLIE,Wards 1-8,LAKE HALLIE VILLAGE HALL,"13136 30TH AVE, CHIPPEWA FALLS, WI 54729-7377",715-726-2660,,Government,-91.40683,44.885795,2020 Spring Primary
CHIPPEWA COUNTY,VILLAGE OF NEW AUBURN,Ward 1,NEW AUBURN VILLAGE HALL,"130 E ELM ST, NEW AUBURN, WI 54757",715-237-2223,,Government,-91.560252,45.205035,2020 Spring Primary
CLARK COUNTY,CITY OF ABBOTSFORD,Wards 2-5,ABBOTSFORD CITY HALL,"203 N 1ST ST, ABBOTSFORD, WI 54405-9102",715-223-3444,,Government,-90.319946,44.947351,2020 Spring Primary
CLARK COUNTY,CITY OF ABBOTSFORD,Ward 7,ABBOTSFORD CITY HALL,"203 N 1ST ST, ABBOTSFORD, WI 54405-9102",715-223-3444,,Government,-90.319946,44.947351,2020 Spring Primary
CLARK COUNTY,CITY OF COLBY,Wards 2-4,COLBY CITY HALL,"211 W SPENCE ST, COLBY, WI 54421-9438",715-223-4435,,Government,-90.317601,44.909272,2020 Spring Primary
CLARK COUNTY,CITY OF GREENWOOD,Wards 1-2,GREENWOOD FIRE HALL,"103 CANNERY ST, GREENWOOD, WI 54437-9705",715-267-6205,,Government,-90.599446,44.760062,2020 Spring Primary
CLARK COUNTY,CITY OF LOYAL,Wards 1-2,LOYAL CITY HALL,"301 N MAIN ST, LOYAL, WI 54446-9406",715-255-8772,,Government,-90.49621,44.738322,2020 Spring Primary
CLARK COUNTY,CITY OF NEILLSVILLE,Ward 1,NEILLSVILLE CITY HALL,"118 W 5TH ST, NEILLSVILLE, WI 54456-1986",715-743-2105,COUNCIL ROOM,Government,-90.596788,44.559662,2020 Spring Primary
CLARK COUNTY,CITY OF NEILLSVILLE,Ward 2,NEILLSVILLE CITY HALL,"118 W 5TH ST, NEILLSVILLE, WI 54456-1986",715-743-2105,COUNCIL ROOM,Government,-90.596788,44.559662,2020 Spring Primary
CLARK COUNTY,CITY OF NEILLSVILLE,Ward 3,NEILLSVILLE CITY HALL,"118 W 5TH ST, NEILLSVILLE, WI 54456-1986",715-743-2105,COUNCIL ROOM,Government,-90.596788,44.559662,2020 Spring Primary
CLARK COUNTY,CITY OF NEILLSVILLE,Ward 4,NEILLSVILLE CITY HALL,"118 W 5TH ST, NEILLSVILLE, WI 54456-1986",715-743-2105,COUNCIL ROOM,Government,-90.596788,44.559662,2020 Spring Primary
CLARK COUNTY,CITY OF NEILLSVILLE,Ward 5,NEILLSVILLE CITY HALL,"118 W 5TH ST, NEILLSVILLE, WI 54456-1986",715-743-2105,COUNCIL ROOM,Government,-90.596788,44.559662,2020 Spring Primary
CLARK COUNTY,CITY OF OWEN,Wards 1-3,OWEN PUBLIC LIBRARY,"412 N CENTRAL AVE, OWEN, WI 54460",715-229-2404,,Government,-90.564788,44.950518,2020 Spring Primary
CLARK COUNTY,CITY OF STANLEY,"Wards 5,8",STANLEY FIRE STATION,"239 E 1ST AVE, STANLEY, WI 54768",715-644-5564,,Government,-90.933009,44.960018,2020 Spring Primary
CLARK COUNTY,CITY OF THORP,Wards 1-4,THORP CITY HALL,"300 W PROSPECT ST, THORP, WI 54771-9302",715-669-5371,,Government,-90.805302,44.957977,2020 Spring Primary
CLARK COUNTY,TOWN OF BEAVER,Ward 1,BEAVER TOWN HALL,"W3742 CAPITAL RD, LOYAL, WI 54446-9100",715-255-8582,,Government,-90.498316,44.813939,2020 Spring Primary
CLARK COUNTY,TOWN OF BUTLER,Ward 1,BUTLER TOWN HALL,"W10498 CAPITAL RD, THORP, WI 54771",715-669-5004,,Government,-90.840596,44.814209,2020 Spring Primary
CLARK COUNTY,TOWN OF COLBY,Wards 1-3,COLBY TOWN HALL,"N13295 BADGER AVE, COLBY, WI 54421-9061",715-223-8804,,Government,-90.356066,44.901842,2020 Spring Primary
CLARK COUNTY,TOWN OF DEWHURST,Ward 1,DEWHURST TOWN HALL,"N103 RIVIERA AVE, MERRILLAN, WI 54754",715-333-7053,,Government,-90.720971,44.431697,2020 Spring Primary
CLARK COUNTY,TOWN OF EATON,Wards 1-2,EATON TOWN HALL,"N8598 STATE HIGHWAY 73, GREENWOOD, WI 54437",(715) 267-7691,,Government,-90.597599,44.730449,2020 Spring Primary
CLARK COUNTY,TOWN OF FOSTER,Ward 1,ROCK DAM ROD & GUN CLUB,"N8561 HAY CREEK RD, WILLARD, WI 54493",715-267-4538,,Private,-90.84834,44.730045,2020 Spring Primary
CLARK COUNTY,TOWN OF FREMONT,Wards 1-2,FREMONT TOWN HALL,"N5671 OAK ST, CHILI, WI 54420-9204",715-683-2873,,Government,-90.358003,44.625809,2020 Spring Primary
CLARK COUNTY,TOWN OF GRANT,Wards 1-2,GRANT TOWN HALL,"W3696 RIDGE RD, GRANTON, WI 54436-8760",(715) 238-7295,,Government,-90.49636,44.560397,2020 Spring Primary
CLARK COUNTY,TOWN OF GREEN GROVE,Wards 1-2,GREEN GROVE TOWN HALL,"N12865 SPARROW AVE, OWEN, WI 54460-8147",(715) 316-5250,,Government,-90.486531,44.884755,2020 Spring Primary
CLARK COUNTY,TOWN OF HENDREN,Ward 1,WILLARD COMMUNITY CENTER,"W8178 DOVE RD, WILLARD, WI 54493-8864",(715) 267-6266,,Private,-90.724112,44.73526,2020 Spring Primary
CLARK COUNTY,TOWN OF HEWETT,Wards 1-2,HEWETT TOWN HALL,"W7498 ARNDT RD, NEILLSVILLE, WI 54456-7825",(715) 937-7574,,Government,-90.689882,44.575,2020 Spring Primary
CLARK COUNTY,TOWN OF HIXON,Wards 1-2,HIXON TOWN HALL,"N16004 FRENCH TOWN AVE, WITHEE, WI 54498-8441",(715) 229-4889,,Government,-90.627865,44.9989,2020 Spring Primary
CLARK COUNTY,TOWN OF HOARD,Wards 1-2,HOARD TOWN HALL,"W3715 CENTER RD, OWEN, WI 54460-8918",715-229-4129,,Government,-90.495923,44.987399,2020 Spring Primary
CLARK COUNTY,TOWN OF LEVIS,Wards 1-2,LEVIS TOWN HALL,"W6235 BRYAN AVE, NEILLSVILLE, WI 54456",715-743-6534,,Government,-90.626877,44.50564,2020 Spring Primary
CLARK COUNTY,TOWN OF LONGWOOD,Wards 1-2,LONGWOOD TOWN HALL,"W5725 COLBY FACTORY RD, OWEN, WI 54460",(715) 229-4103,,Government,-90.599919,44.885626,2020 Spring Primary
CLARK COUNTY,TOWN OF LOYAL,Wards 1-2,LOYAL TOWN HALL,"W3412 CHICKADEE RD, LOYAL, WI 54446-8429",715-255-8258,,Government,-90.481523,44.727299,2020 Spring Primary
CLARK COUNTY,TOWN OF LYNN,Wards 1-2,LYNN TOWN HALL,"W1877 US HIGHWAY 10, GRANTON, WI 54436-8847",(715) 937-1626,,Government,-90.405064,44.581787,2020 Spring Primary
CLARK COUNTY,TOWN OF MAYVILLE,Wards 1-2,MAYVILLE TOWN HALL,"W1296 CENTER RD, DORCHESTER, WI 54425-9136",(715) 654-6577,,Government,-90.376452,44.988691,2020 Spring Primary
CLARK COUNTY,TOWN OF MEAD,Ward 1,MEAD TOWN HALL,"N10516 BACHELORS AVE, GREENWOOD, WI 54437-8664",(715) 267-6258,,Government,-90.739598,44.800386,2020 Spring Primary
CLARK COUNTY,TOWN OF MENTOR,Ward 1,MENTOR TOWN HALL,"N3057 KING ST, HUMBIRD, WI 54746-8209",715-964-8017,,Government,-90.890278,44.529973,2020 Spring Primary
CLARK COUNTY,TOWN OF PINE VALLEY,Wards 1-2,PINE VALLEY TOWN HALL,"N3907 MARG AVE, NEILLSVILLE, WI 54456-7318",(715) 743-3137,,Government,-90.629335,44.560323,2020 Spring Primary
CLARK COUNTY,TOWN OF RESEBURG,Wards 1-2,RESEBURG TOWN HALL,"N13710 GORMAN AVE, THORP, WI 54771-7700",715-669-3873,,Government,-90.759872,44.915594,2020 Spring Primary
CLARK COUNTY,TOWN OF SEIF,Ward 1,SEIF TOWN HALL,"N6738 IVES AVE, WILLARD, WI 54493-8504",(715) 937-5944,,Government,-90.75027,44.662521,2020 Spring Primary
CLARK COUNTY,TOWN OF SHERMAN,Wards 1-2,SHERMAN TOWN HALL,"W896 WILLARD RD, SPENCER, WI 54479-9060",(715) 659-4574,,Government,-90.356664,44.743123,2020 Spring Primary
CLARK COUNTY,TOWN OF SHERWOOD,Ward 1,SHERWOOD TOWN HALL,"W896 SHERWOOD RD, GRANTON, WI 54436",715-884-2599,,Government,-90.355245,44.467426,2020 Spring Primary
CLARK COUNTY,TOWN OF THORP,Ward 1,THORP TOWN HALL,"W10902 COUNTY ROAD X, STANLEY, WI 54768-8135",715-669-3442,,Government,-90.861782,44.959452,2020 Spring Primary
CLARK COUNTY,TOWN OF UNITY,Ward 1,UNITY TOWN HALL,"W1296 CAPITAL RD, SPENCER, WI 54479",(715) 659-5166,,Government,-90.376832,44.81486,2020 Spring Primary
CLARK COUNTY,TOWN OF WARNER,Wards 1-2,WARNER TOWN HALL,"W6194 RIPLINGER RD, GREENWOOD, WI 54437-8710",715-267-7124,,Government,-90.623054,44.821293,2020 Spring Primary
CLARK COUNTY,TOWN OF WASHBURN,Ward 1,WASHBURN TOWN HALL,"W3808 STATE HIGHWAY 73, NEILLSVILLE, WI 54456",715-743-3834,,Government,-90.502046,44.494946,2020 Spring Primary
CLARK COUNTY,TOWN OF WESTON,Wards 1-2,WESTON TOWN HALL,"W6105 COUNTY ROAD H, NEILLSVILLE, WI 54456",(715) 937-0646,,Government,-90.619127,44.654242,2020 Spring Primary
CLARK COUNTY,TOWN OF WITHEE,Ward 1,WITHEE TOWN HALL,"N15590 BACHELORS AVE, THORP, WI 54771-7509",715-669-5149,,Government,-90.739458,44.983985,2020 Spring Primary
CLARK COUNTY,TOWN OF WORDEN,Ward 1,WORDEN TOWN HALL,"N13691 KOSER AVE, THORP, WI 54771-7611",715-669-3157,,Government,-90.86188,44.915197,2020 Spring Primary
CLARK COUNTY,TOWN OF YORK,Wards 1-2,YORK TOWN HALL,"N5890 COUNTY ROAD K, GRANTON, WI 54436",715-743-4277,,Government,-90.501122,44.63297,2020 Spring Primary
CLARK COUNTY,VILLAGE OF CURTISS,Ward 1,CURTISS COMMUNITY CENTER,"1107 MERIDIAN ST, CURTISS, WI 54422",715-223-6226,,Government,-90.434539,44.955211,2020 Spring Primary
CLARK COUNTY,VILLAGE OF DORCHESTER,Ward 1,CLERK'S OFFICE,"250 PARKSIDE DR, DORCHESTER, WI 54425-9732",(715) 654-5006,,Government,-90.332523,45.001494,2020 Spring Primary
CLARK COUNTY,VILLAGE OF GRANTON,Ward 1,GRANTON VILLAGE HALL,"127 MAPLE ST, GRANTON, WI 54436-7821",715-238-7339,,Government,-90.462825,44.587543,2020 Spring Primary
CLARK COUNTY,VILLAGE OF UNITY,Ward 2,UNITY MEMORIAL HALL,"202 W CLARK ST, UNITY, WI 54488",715-613-1173,,Government,-90.317039,44.851562,2020 Spring Primary
CLARK COUNTY,VILLAGE OF WITHEE,Ward 1,WITHEE VILLAGE HALL,"511 DIVISION ST BOX A, WITHEE, WI 54498",715-229-4319,,Government,-90.598107,44.954418,2020 Spring Primary
COLUMBIA COUNTY,CITY OF COLUMBUS,"Wards 1-8,10",COLUMBUS SENIOR CENTER,"125 N DICKASON BLVD, COLUMBUS, WI 53925-1565",920-623-5918,,Government,-89.015541,43.339603,2020 Spring Primary
COLUMBIA COUNTY,CITY OF LODI,Wards 1-6,LODI CITY HALL,"130 S MAIN ST, LODI, WI 53555-1119",608-592-3247,,Government,-89.526245,43.313117,2020 Spring Primary
COLUMBIA COUNTY,CITY OF PORTAGE,Wards 1-11,PORTAGE MUNICIPAL BUILDING,"115 W PLEASANT ST, PORTAGE, WI 53901-1742",608-742-2176,,Government,-89.461755,43.541366,2020 Spring Primary
COLUMBIA COUNTY,CITY OF WISCONSIN DELLS,"Wards 1-3,6,11-12",WISCONSIN DELLS MUNICIPAL BUILDING,"300 LA CROSSE ST, WISCONSIN DELLS, WI 53965-1568",608-254-2012,,Government,-89.775002,43.624787,2020 Spring Primary
COLUMBIA COUNTY,TOWN OF ARLINGTON,Ward 1,ARLINGTON COMMUNITY CENTER,"200 COMMERCIAL ST, ARLINGTON, WI 53911-8510",(608) 635-2474,,Government,-89.379692,43.339093,2020 Spring Primary
COLUMBIA COUNTY,TOWN OF CALEDONIA,Wards 1-2,CALEDONIA TOWN HALL,"N5479 BEICH RD, PORTAGE, WI 53901-9698",(608) 617-4154,,Government,-89.522726,43.473449,2020 Spring Primary
COLUMBIA COUNTY,TOWN OF COLUMBUS,Ward 1,COLUMBUS TOWN HALL,"N1120 SCHAEFER RD, COLUMBUS, WI 53925-9274",920-623-1950,,Government,-89.068558,43.320305,2020 Spring Primary
COLUMBIA COUNTY,TOWN OF COURTLAND,Ward 1,COURTLAND TOWN HALL,"W1999 COUNTY ROAD A, RANDOLPH, WI 53956",(920) 210-6093,,Government,-89.101333,43.493347,2020 Spring Primary
COLUMBIA COUNTY,TOWN OF DEKORRA,Wards 1-3,POYNETTE MUNICIPAL BLDG CIVIC HALL,"106 S MAIN ST, POYNETTE, WI 53955-8917",608-635-2122,Civic Hall,Government,-89.40304,43.390301,2020 Spring Primary
COLUMBIA COUNTY,TOWN OF FORT WINNEBAGO,Ward 1,FORT WINNEBAGO ELEMENTARY SCHOOL,"W8349 DUMKE RD, PORTAGE, WI 53901-9712",(608) 742-1395,,School,-89.417384,43.613147,2020 Spring Primary
COLUMBIA COUNTY,TOWN OF FOUNTAIN PRAIRIE,Wards 1-2,FOUNTAIN PRAIRIE TOWN HALL,"W1514 COUNTY ROAD Z, FALL RIVER, WI 53932-9539",920-484-3396,,Government,-89.075648,43.42886,2020 Spring Primary
COLUMBIA COUNTY,TOWN OF HAMPDEN,Ward 1,HAMPDEN TOWN HALL,"N1291 COUNTY RD N, COLUMBUS, WI 53925",920-623-9901,,Government,-89.199587,43.325007,2020 Spring Primary
COLUMBIA COUNTY,TOWN OF LEEDS,Wards 1-2,LEEDS TOWN HALL,"N1485 PRIBBENOW DR, ARLINGTON, WI 53911-9752",608-635-8878,,Government,-89.307174,43.331415,2020 Spring Primary
COLUMBIA COUNTY,TOWN OF LEWISTON,Wards 1-2,LEWISTON ELEMENTARY SCHOOL,"W11195 HIGHWAY 127, PORTAGE, WI 53901",608-742-2524,,School,-89.558462,43.593718,2020 Spring Primary
COLUMBIA COUNTY,TOWN OF LODI,Wards 1-5,LODI TOWN HALL/MUNICIPAL BUILDING,"W10919 COUNTY ROAD V, LODI, WI 53555",608-592-4868,,Government,-89.542533,43.347463,2020 Spring Primary
COLUMBIA COUNTY,TOWN OF LOWVILLE,Wards 1-2,LOWVILLE TOWN HALL,"W6604 TRAUT RD, POYNETTE, WI 53955-9804",920-992-5474,,Government,-89.334219,43.412043,2020 Spring Primary
COLUMBIA COUNTY,TOWN OF MARCELLON,Wards 1-2,MARCELLON SCHOOL,"W6180 SCHOOL RD, PARDEEVILLE, WI 53954-9746",608-429-4072,,School,-89.309175,43.599914,2020 Spring Primary
COLUMBIA COUNTY,TOWN OF NEWPORT,Ward 1,NEWPORT MEMORIAL TOWN HALL,"N9236 TOWN HALL ROAD, WISCONSIN DELLS, WI 53965",608-254-8629,,Government,-89.709035,43.613521,2020 Spring Primary
COLUMBIA COUNTY,TOWN OF OTSEGO,Ward 1,OTSEGO TOWN HALL,"W3199 STATE ROAD 16, COLUMBUS, WI 53925-9796",920-992-3256,,Government,-89.159489,43.401595,2020 Spring Primary
COLUMBIA COUNTY,TOWN OF PACIFIC,Wards 1-4,PACIFIC TOWN HALL,"W7530 STATE ROAD 16, PARDEEVILLE, WI 53954-9520",608-742-8763,,Government,-89.375492,43.490604,2020 Spring Primary
COLUMBIA COUNTY,TOWN OF RANDOLPH,Ward 1,RANDOLPH TOWN HALL,"109 S MADISON ST, FRIESLAND, WI 53935",920-348-5065,,Government,-89.067518,43.587706,2020 Spring Primary
COLUMBIA COUNTY,TOWN OF SCOTT,Ward 1,SCOTT TOWN HALL,"W3696 ROSS RD, CAMBRIA, WI 53923",(920) 348-5110,,Government,-89.184452,43.599994,2020 Spring Primary
COLUMBIA COUNTY,TOWN OF SPRINGVALE,Wards 1-2,SPRINGVALE TOWN HALL,"N6195 RADDATZ RD, CAMBRIA, WI 53923-9744",920-348-6224,,Government,-89.206476,43.503802,2020 Spring Primary
COLUMBIA COUNTY,TOWN OF WEST POINT,Wards 1-3,WEST POINT TOWN HALL,"N2114 RAUSCH RD, LODI, WI 53555-9362",608-592-7059,,Government,-89.669285,43.351461,2020 Spring Primary
COLUMBIA COUNTY,TOWN OF WYOCENA,Wards 1-2,WYOCENA TOWN HALL,"119 N WASHINGTON ST, WYOCENA, WI 53969",608-429-4430,,Government,-89.309516,43.496092,2020 Spring Primary
COLUMBIA COUNTY,VILLAGE OF ARLINGTON,Ward 1,ARLINGTON COMMUNITY CENTER,"200 COMMERCIAL ST, ARLINGTON, WI 53911-8510",(608) 635-2474,,Government,-89.379692,43.339093,2020 Spring Primary
COLUMBIA COUNTY,VILLAGE OF CAMBRIA,Ward 1,CAMBRIA COMMUNITY ROOM,"111 W EDGEWATER ST, CAMBRIA, WI 53923-8870",920-348-5443,,Government,-89.108569,43.543376,2020 Spring Primary
COLUMBIA COUNTY,VILLAGE OF DOYLESTOWN,Ward 1,DOYLESTOWN VILLAGE HALL,"W3005 RAILROAD ST, DOYLESTOWN, WI 53928",920-992-3610,,Government,-89.15075,43.427587,2020 Spring Primary
COLUMBIA COUNTY,VILLAGE OF FALL RIVER,Wards 1-2,FALL RIVER MUNICIPAL BUILDING,"641 S MAIN ST, FALL RIVER, WI 53932-9528",920-484-3525,,Government,-89.058199,43.380687,2020 Spring Primary
COLUMBIA COUNTY,VILLAGE OF FRIESLAND,Ward 1,FRIESLAND VILLAGE HALL,"113 S MADISON ST, FRIESLAND, WI 53935-9701",920-348-5156,,Government,-89.06773376,43.58724213,2020 Spring Primary
COLUMBIA COUNTY,VILLAGE OF PARDEEVILLE,Wards 1-3,PARDEEVILLE VILLAGE HALL,"114 LAKE ST, PARDEEVILLE, WI 53954-8035",608-429-3121,,Government,-89.298851,43.538299,2020 Spring Primary
COLUMBIA COUNTY,VILLAGE OF POYNETTE,Wards 1-4,POYNETTE VILLAGE HALL,"106 S MAIN ST, POYNETTE, WI 53955-8917",608-635-2122,Board Room,Government,-89.40304,43.390301,2020 Spring Primary
COLUMBIA COUNTY,VILLAGE OF RANDOLPH,Ward 3,RANDOLPH VILLAGE HALL,"248 W STROUD ST, RANDOLPH, WI 53956-1272",920-326-4600,,Government,-89.009752,43.538009,2020 Spring Primary
COLUMBIA COUNTY,VILLAGE OF RIO,Wards 1-2,RIO VILLAGE HALL,"205 LINCOLN AVE, RIO, WI 53960-8014",920-992-5454,,Government,-89.239409,43.448019,2020 Spring Primary
COLUMBIA COUNTY,VILLAGE OF WYOCENA,Ward 1,WYOCENA VILLAGE HALL,"165 E DODGE ST, WYOCENA, WI 53969-0913",608-429-2349,,Government,-89.30897522,43.49430084,2020 Spring Primary
CRAWFORD COUNTY,CITY OF PRAIRIE DU CHIEN,Ward 1,Hoffman Hall,"1600 S WACOUTA AVE, PRAIRIE DU CHIEN, WI 53821",,,Other,-91.141355,43.031345,2020 Spring Primary
CRAWFORD COUNTY,CITY OF PRAIRIE DU CHIEN,"Wards 2,7",Hoffman Hall,"1600 S WACOUTA AVE, PRAIRIE DU CHIEN, WI 53821",,,Other,-91.141355,43.031345,2020 Spring Primary
CRAWFORD COUNTY,CITY OF PRAIRIE DU CHIEN,Ward 3,Hoffman Hall,"1600 S WACOUTA AVE, PRAIRIE DU CHIEN, WI 53821",,,Other,-91.141355,43.031345,2020 Spring Primary
CRAWFORD COUNTY,CITY OF PRAIRIE DU CHIEN,Ward 4,Hoffman Hall,"1600 S WACOUTA AVE, PRAIRIE DU CHIEN, WI 53821",,,Other,-91.141355,43.031345,2020 Spring Primary
CRAWFORD COUNTY,CITY OF PRAIRIE DU CHIEN,Ward 5,Hoffman Hall,"1600 S WACOUTA AVE, PRAIRIE DU CHIEN, WI 53821",,,Other,-91.141355,43.031345,2020 Spring Primary
CRAWFORD COUNTY,CITY OF PRAIRIE DU CHIEN,Ward 6,Hoffman Hall,"1600 S WACOUTA AVE, PRAIRIE DU CHIEN, WI 53821",,,Other,-91.141355,43.031345,2020 Spring Primary
CRAWFORD COUNTY,TOWN OF BRIDGEPORT,Ward 1,BRIDGEPORT TOWN HALL,"38466 OLD SCHOOL LN, PRAIRIE DU CHIEN, WI 53821",608-326-2385,,Private,-91.07051,43.011173,2020 Spring Primary
CRAWFORD COUNTY,TOWN OF CLAYTON,Wards 1-3,CLAYTON TOWN HALL,"13069 STATE HWY 61, SOLDIERS GROVE, WI 54655",608-624-5136,,Government,-90.768348,43.393347,2020 Spring Primary
CRAWFORD COUNTY,TOWN OF EASTMAN,Wards 1-2,EASTMAN COMMUNITY BUILDING,"112 SHANGHAI RIDGE RD, EASTMAN, WI 54626",608-874-4361,,Private,-91.014085,43.166807,2020 Spring Primary
CRAWFORD COUNTY,TOWN OF FREEMAN,Ward 1,FREEMAN TOWN HALL,"58596 COUNTY ROAD B, FERRYVILLE, WI 54628-8054",608-734-3542,,Private,-91.03818,43.400651,2020 Spring Primary
CRAWFORD COUNTY,TOWN OF HANEY,Ward 1,HANEY TOWN HALL,"22399 STATE HIGHWAY 131, GAYS MILLS, WI 54631-6235",608-872-2279,,Private,-90.850906,43.243246,2020 Spring Primary
CRAWFORD COUNTY,TOWN OF MARIETTA,Ward 1,MARIETTA TOWN HALL,"45550 MAPLE RIDGE RD, BOSCOBEL, WI 53805",608-476-2188,,Private,-90.780006,43.176862,2020 Spring Primary
CRAWFORD COUNTY,TOWN OF PRAIRIE DU CHIEN,Wards 1-2,PRAIRIE DU CHIEN TOWN HALL,"33890 STATE HWY 35, PRAIRIE DU CHIEN, WI 53821-8114",608-326-6205,,Private,-91.136031,43.075727,2020 Spring Primary
CRAWFORD COUNTY,TOWN OF SCOTT,Ward 1,Mt. Zion Methodist Church,"21588 MT. ZION ROAD, BOSCOBEL, WI 54631-8236",,,Religious,-90.73668,43.254395,2020 Spring Primary
CRAWFORD COUNTY,TOWN OF SENECA,Ward 1,SENECA TOWN HALL,"21041 TOWN HALL RD, SENECA, WI 54654",608-874-4944,,Private,-90.955235,43.26206,2020 Spring Primary
CRAWFORD COUNTY,TOWN OF UTICA,Ward 1,UTICA TOWN HALL,"15600 FREEMAN RD, GAYS MILLS, WI 54631-7195",608-734-3185,,Government,-90.895889,43.341692,2020 Spring Primary
CRAWFORD COUNTY,TOWN OF WAUZEKA,Wards 1-2,WAUZEKA TOWN HALL,"304 E FRONT ST, WAUZEKA, WI 53826-9659",8756013,,Private,-90.882282,43.083837,2020 Spring Primary
CRAWFORD COUNTY,VILLAGE OF BELL CENTER,Ward 1,BELL CENTER VILLAGE HALL,"430 BELL CENTER RD, GAYS MILLS, WI 54631",608-872-2499,,Private,-90.823934,43.290733,2020 Spring Primary
CRAWFORD COUNTY,VILLAGE OF DE SOTO,Ward 2,DE SOTO VILLAGE OFFICE,"115 HOUGHTON ST, DE SOTO, WI 54624-3201",608-648-2700,,Government,-91.198153,43.423007,2020 Spring Primary
CRAWFORD COUNTY,VILLAGE OF EASTMAN,Ward 1,EASTMAN COMMUNITY BUILDING,"112 SHANGHAI RIDGE RD, EASTMAN, WI 54626",608-874-4361,,Private,-91.014085,43.166807,2020 Spring Primary
CRAWFORD COUNTY,VILLAGE OF FERRYVILLE,Ward 1,FERRYVILLE VILLAGE HALL,"170 PINE ST, FERRYVILLE, WI 54628-7050",608-734-4341,,Business,-91.086392,43.342443,2020 Spring Primary
CRAWFORD COUNTY,VILLAGE OF GAYS MILLS,Ward 1,COMMUNITY COMMERCE CENTER,"16381 STATE HIGHWAY 131, GAYS MILLS, WI 54631-7330",608-735-4341,,Government,-90.838993,43.329743,2020 Spring Primary
CRAWFORD COUNTY,VILLAGE OF LYNXVILLE,Ward 1,LYNXVILLE COMMUNITY CENTER,"362 SPRING ST, LYNXVILLE, WI 54626-7134",608-874-4424,,Private,-91.051933,43.247293,2020 Spring Primary
CRAWFORD COUNTY,VILLAGE OF MT. STERLING,Ward 1,MOUNT STERLING VILLAGE HALL,"155 SECOND ST, MOUNT STERLING, WI 54645",608-734-3515,,Government,-90.94583,43.319613,2020 Spring Primary
CRAWFORD COUNTY,VILLAGE OF SOLDIERS GROVE,Ward 1,SOLDIERS GROVE COMMUNITY BUILDING,"102 PASSIVE SUN DR, SOLDIERS GROVE, WI 54655",608-624-3264,,Private,-90.766132,43.38855,2020 Spring Primary
CRAWFORD COUNTY,VILLAGE OF STEUBEN,Ward 1,STEUBEN VILLAGE HALL,"123 MIDWAY ST, STEUBEN, WI 54657",608-476-2276,,Government,-90.858608,43.181003,2020 Spring Primary
CRAWFORD COUNTY,VILLAGE OF WAUZEKA,Ward 1,WAUZEKA VILLAGE HALL,"213 E FRONT ST B, WAUZEKA, WI 53826",608-875-5281,,Government,-90.882993,43.084108,2020 Spring Primary
DANE COUNTY,CITY OF EDGERTON,Ward 7,EDGERTON CITY HALL,"12 ALBION ST, EDGERTON, WI 53534-1866",608-884-3341,,Government,-89.072282,42.835282,2020 Spring Primary
DANE COUNTY,CITY OF FITCHBURG,Wards 1-4,MARKETPLACE FIRE STATION,"2931 MARKETPLACE DR, FITCHBURG, WI 53719",608-275-7150,APPARATUS BAYS,Government,-89.45856,43.01326,2020 Spring Primary
DANE COUNTY,CITY OF FITCHBURG,Wards 5-9,FITCHBURG FIRE STATION NO. 1,"5791 LACY RD, FITCHBURG, WI 53711-5363",608-278-2980,,Government,-89.445504,43.000955,2020 Spring Primary
DANE COUNTY,CITY OF FITCHBURG,Wards 10-14,WYNDHAM GARDEN HOTEL,"2969 CAHILL MAIN, FITCHBURG, WI 53711",608-274-7200,Ballroom,Business,-89.424208,43.017021,2020 Spring Primary
DANE COUNTY,CITY OF FITCHBURG,Wards 15-20,FITCHBURG COMMUNITY CENTER,"5510 LACY RD, FITCHBURG, WI 53711-5318",608-270-4200,,Government,-89.423651,43.002379,2020 Spring Primary
DANE COUNTY,CITY OF MADISON,Ward 1,Fire Station 14,"3201 DAIRY DR, MADISON, WI 53716",,,Government,-89.295003,43.052454,2020 Spring Primary
DANE COUNTY,CITY OF MADISON,Ward 2,GLENDALE ELEMENTARY SCHOOL,"1201 TOMPKINS DR, MADISON, WI 53716-3272",608-516-41,,School,-89.31206,43.057848,2020 Spring Primary
DANE COUNTY,CITY OF MADISON,Ward 3,CITY CHURCH,"4909 E BUCKEYE RD, MADISON, WI 53716-1864",608-221-1528,,Religious,-89.297202,43.072688,2020 Spring Primary
DANE COUNTY,CITY OF MADISON,Ward 4,CITY CHURCH,"4909 E BUCKEYE RD, MADISON, WI 53716-1864",608-221-1528,,Religious,-89.297202,43.072688,2020 Spring Primary
DANE COUNTY,CITY OF MADISON,Ward 5,ELVEHJEM ELEMENTARY,"5106 ACADEMY DR, MADISON, WI 53716-1404",608-204-1400,,School,-89.292264,43.078623,2020 Spring Primary
DANE COUNTY,CITY OF MADISON,Ward 6,ELVEHJEM ELEMENTARY,"5106 ACADEMY DR, MADISON, WI 53716-1404",608-204-1400,,School,-89.292264,43.078623,2020 Spring Primary
DANE COUNTY,CITY OF MADISON,Ward 7,Westminster Senior Apartments,"6160 DELL DR, MADISON, WI 53718-7800",,,Business,-89.272892,43.076672,2020 Spring Primary
DANE COUNTY,CITY OF MADISON,Ward 8,DOOR CREEK CHURCH,"6602 DOMINION DR, MADISON, WI 53718-3248",0,,Religious,-89.264546,43.091965,2020 Spring Primary
DANE COUNTY,CITY OF MADISON,Ward 9,Oak Park Place,"718 JUPITER DR, MADISON, WI 53718-2950",,,Private,-89.283118,43.087395,2020 Spring Primary
DANE COUNTY,CITY OF MADISON,Ward 10,KENNEDY ELEMENTARY SCHOOL,"221 MEADOWLARK DR, MADISON, WI 53714-2629",0,,School,-89.297468,43.094304,2020 Spring Primary
DANE COUNTY,CITY OF MADISON,Ward 11,AMERICAN FAMILY INSURANCE,"302 N WALBRIDGE AVE, MADISON, WI 53714-1958",608-335-2492,,Business,-89.312908,43.103963,2020 Spring Primary
DANE COUNTY,CITY OF MADISON,Ward 12,NEW BEGINNINGS ALLIANCE CHURCH,"602 ACEWOOD BLVD, MADISON, WI 53714-3206",608-288-0797,,Religious,-89.302653,43.089385,2020 Spring Primary
DANE COUNTY,CITY OF MADISON,Ward 13,LAFOLLETTE HIGH SCHOOL,"700 PFLAUM RD, MADISON, WI 53716-2167",608-204-3686,,School,-89.319657,43.063016,2020 Spring Primary
DANE COUNTY,CITY OF MADISON,Ward 14,LAFOLLETTE HIGH SCHOOL,"700 PFLAUM RD, MADISON, WI 53716-2167",608-204-3686,,School,-89.319657,43.063016,2020 Spring Primary
DANE COUNTY,CITY OF MADISON,Ward 15,LUSSIER FAMILY EAST YMCA,"711 COTTAGE GROVE RD, MADISON, WI 53716",,,Other,-89.314416,43.083234,2020 Spring Primary
DANE COUNTY,CITY OF MADISON,Ward 16,WHITEHORSE MIDDLE SCHOOL,"218 SCHENK ST, MADISON, WI 53714-1535",2193906,,School,-89.323663,43.092508,2020 Spring Primary
DANE COUNTY,CITY OF MADISON,Ward 17,AMERICAN FAMILY INSURANCE,"302 N WALBRIDGE AVE, MADISON, WI 53714-1958",608-335-2492,,Business,-89.312908,43.103963,2020 Spring Primary
DANE COUNTY,CITY OF MADISON,Ward 18,HY-VEE,"3801 E WASHINGTON AVE, MADISON, WI 53704-3648",608-209-2729,,Business,-89.318493,43.117908,2020 Spring Primary
DANE COUNTY,CITY OF MADISON,Ward 19,EAST MADISON COMMUNITY CENTER,"8 STRAUBEL CT, MADISON, WI 53704-4104",608-242-3194,,Government,-89.328654,43.118378,2020 Spring Primary
DANE COUNTY,CITY OF MADISON,Ward 20,EAST MADISON COMMUNITY CENTER,"8 STRAUBEL CT, MADISON, WI 53704-4104",608-242-3194,,Government,-89.328654,43.118378,2020 Spring Primary
DANE COUNTY,CITY OF MADISON,Ward 21,HY-VEE,"3801 E WASHINGTON AVE, MADISON, WI 53704-3648",608-209-2729,,Business,-89.318493,43.117908,2020 Spring Primary
DANE COUNTY,CITY OF MADISON,Ward 22,GOODWILL OF SOUTH CENTRAL WISCONSIN,"1302 MENDOTA ST, MADISON, WI 53714",,,Other,-89.316756,43.116507,2020 Spring Primary
DANE COUNTY,CITY OF MADISON,Ward 23,FIRE STATION NO. 11,"4011 MORGAN WAY, MADISON, WI 53718-6395",608-266-4886,,Government,-89.27947235,43.1441536,2020 Spring Primary
DANE COUNTY,CITY OF MADISON,Ward 24,OAKWOOD VILLAGE PRAIRIE RIDGE,"5565 TANCHO DR, MADISON, WI 53718-1901",608-230-4550,,Business,-89.28355,43.156233,2020 Spring Primary
DANE COUNTY,CITY OF MADISON,Ward 25,SANDBURG ELEMENTARY SCHOOL,"4114 DONALD DR, MADISON, WI 53704-2822",2193874,,School,-89.312825,43.136295,2020 Spring Primary
DANE COUNTY,CITY OF MADISON,Ward 26,EASTSIDE EVANGELICAL LUTHERAN CHURCH,"2310 INDEPENDENCE LN, MADISON, WI 53704-3528",608-244-3045,,Religious,-89.310947,43.129429,2020 Spring Primary
DANE COUNTY,CITY OF MADISON,Ward 27,MADISON AREA TECHNICAL COLLEGE COMMERCIAL AVENUE EDUCATION CENTER,"2125 COMMERCIAL AVE, MADISON, WI 53704-4738",2193872,,School,-89.35701,43.106376,2020 Spring Primary
DANE COUNTY,CITY OF MADISON,Ward 28,MADISON AREA TECHNICAL COLLEGE COMMERCIAL AVENUE EDUCATION CENTER,"2125 COMMERCIAL AVE, MADISON, WI 53704-4738",2193872,,School,-89.35701,43.106376,2020 Spring Primary
DANE COUNTY,CITY OF MADISON,Ward 29,EAST HIGH SCHOOL,"2222 E WASHINGTON AVE, MADISON, WI 53704-5210",,,School,-89.354851,43.097698,2020 Spring Primary
DANE COUNTY,CITY OF MADISON,Ward 30,SHERMAN MIDDLE SCHOOL,"1610 RUSKIN ST, MADISON, WI 53704-3469",608-204-2100,,School,-89.362127,43.118143,2020 Spring Primary
DANE COUNTY,CITY OF MADISON,Ward 31,Lakeview Library,"2845 N SHERMAN AVE, MADISON, WI 53704",,,Government,-89.362239,43.127801,2020 Spring Primary
DANE COUNTY,CITY OF MADISON,Ward 32,Goodwill Madison Northside,"2901 N SHERMAN AVE, MADISON, WI 53704",,,Business,-89.361253,43.128031,2020 Spring Primary
DANE COUNTY,CITY OF MADISON,Ward 33,WARNER PARK COMMUNITY RECREATION CENTER,"1625 NORTHPORT DR, MADISON, WI 53704-2300",608-245-3694,,Government,-89.369017,43.131823,2020 Spring Primary
DANE COUNTY,CITY OF MADISON,Ward 34,WARNER PARK COMMUNITY RECREATION CENTER,"1625 NORTHPORT DR, MADISON, WI 53704-2300",608-245-3694,,Government,-89.369017,43.131823,2020 Spring Primary
DANE COUNTY,CITY OF MADISON,Ward 35,MENDOTA ELEMENTARY,"4002 SCHOOL RD, MADISON, WI 53704-1928",608-204-7840,,School,-89.383579,43.136628,2020 Spring Primary
DANE COUNTY,CITY OF MADISON,Ward 36,MENDOTA ELEMENTARY,"4002 SCHOOL RD, MADISON, WI 53704-1928",608-204-7840,,School,-89.383579,43.136628,2020 Spring Primary
DANE COUNTY,CITY OF MADISON,Ward 37,LINDBERGH ELEMENTARY SCHOOL,"4500 KENNEDY RD, MADISON, WI 53704-1208",608-204-6500,,School,-89.388509,43.143278,2020 Spring Primary
DANE COUNTY,CITY OF MADISON,Ward 38,BLACK HAWK MIDDLE SCHOOL,"1402 WYOMING WAY, MADISON, WI 53704-1447",608-204-4360,,School,-89.370334,43.146452,2020 Spring Primary
DANE COUNTY,CITY OF MADISON,Ward 39,HAWTHORNE LIBRARY,"2707 E WASHINGTON AVE, MADISON, WI 53704-5002",608-246-5602,,Government,-89.346484,43.101621,2020 Spring Primary
DANE COUNTY,CITY OF MADISON,Ward 40,OLBRICH GARDENS,"3330 ATWOOD AVE, MADISON, WI 53704-5808",0,,Government,-89.335601,43.092465,2020 Spring Primary
DANE COUNTY,CITY OF MADISON,Ward 41,O'KEEFFE MIDDLE SCHOOL,"510 S THORNTON AVE, MADISON, WI 53703-3725",608-204-6820,,School,-89.35724,43.086479,2020 Spring Primary
DANE COUNTY,CITY OF MADISON,Ward 42,WIL-MAR NEIGHBORHOOD CENTER,"504 S BREARLY ST, MADISON, WI 53703",608-257-4576,,Private,-89.367028,43.079939,2020 Spring Primary
DANE COUNTY,CITY OF MADISON,Ward 43,Madison Municipal Building,"215 MARTIN LUTHER KING JR BLVD, MADISON, WI 53703-3388",,,Government,-89.381137,43.073307,2020 Spring Primary
DANE COUNTY,CITY OF MADISON,Ward 44,TENNEY PARK PAVILION,"402 N THORNTON AVE, MADISON, WI 53703",608-266-4601,,Government,-89.366979,43.091899,2020 Spring Primary
DANE COUNTY,CITY OF MADISON,Ward 45,LAPHAM ELEMENTARY,"1045 E DAYTON ST, MADISON, WI 53703-2427",608-204-4155,,School,-89.37223053,43.08535767,2020 Spring Primary
DANE COUNTY,CITY OF MADISON,Ward 46,GATES OF HEAVEN,"302 E GORHAM ST, MADISON, WI 53703",608-266-4711,,Government,-89.384858,43.079922,2020 Spring Primary
DANE COUNTY,CITY OF MADISON,Ward 47,UW-MADISON LOWELL CENTER,"610 LANGDON ST, MADISON, WI 53703-1104",608-262-0881,,Government,-89.39583,43.076239,2020 Spring Primary
DANE COUNTY,CITY OF MADISON,Ward 48,UW-MADISON LOWELL CENTER,"610 LANGDON ST, MADISON, WI 53703-1104",608-262-0881,,Government,-89.39583,43.076239,2020 Spring Primary
DANE COUNTY,CITY OF MADISON,Ward 49,HUB MADISON APARTMENTS,"437 N FRANCES ST, MADISON, WI 53703-2013",,,Private,-89.395451,43.074402,2020 Spring Primary
DANE COUNTY,CITY OF MADISON,Ward 50,DOYLE ADMINISTRATION,"545 W DAYTON ST, MADISON, WI 53703-1967",608-663-1607,,School,-89.395004,43.070385,2020 Spring Primary
DANE COUNTY,CITY OF MADISON,Ward 51,MADISON CENTRAL LIBRARY,"201 W MIFFLIN ST, MADISON, WI 53703-2511",608-266-6290,,Government,-89.387519,43.073625,2020 Spring Primary
DANE COUNTY,CITY OF MADISON,Ward 52,Madison Municipal Building,"215 MARTIN LUTHER KING JR BLVD, MADISON, WI 53703-3388",,,Government,-89.381137,43.073307,2020 Spring Primary
DANE COUNTY,CITY OF MADISON,Ward 53,CAPITOL LAKES RETIREMENT,"333 W MAIN ST, MADISON, WI 53703-2777",608-283-2000,,Private,-89.38697815,43.0707016,2020 Spring Primary
DANE COUNTY,CITY OF MADISON,Ward 54,SMITH HALL,"35 N PARK ST, MADISON, WI 53715",,LAINES LOUNGE,Government,-89.400368,43.069038,2020 Spring Primary
DANE COUNTY,CITY OF MADISON,Ward 55,PORCHLIGHT,"306 N BROOKS ST, MADISON, WI 53715-1082",608-257-2534,,Private,-89.402937,43.072444,2020 Spring Primary
DANE COUNTY,CITY OF MADISON,Ward 56,Sellery Hall,"821 W JOHNSON ST, MADISON, WI 53706-1701",,,Other,-89.399082,43.071506,2020 Spring Primary
DANE COUNTY,CITY OF MADISON,Ward 57,UW-MADISON MEMORIAL LIBRARY,"728 STATE ST, MADISON, WI 53706-1418",608-262-6526,,Government,-89.39801,43.075345,2020 Spring Primary
DANE COUNTY,CITY OF MADISON,Ward 58,UW Memorial Union,"800 LANGDON ST, MADISON, WI 53706-1419",,,School,-89.399878,43.076229,2020 Spring Primary
DANE COUNTY,CITY OF MADISON,Ward 59,UW-MADISON FRANK HOLT CENTER,"1650 KRONSHAGE DR, MADISON, WI 53706-1203",608-262-8803,,Government,-89.414351,43.077892,2020 Spring Primary
DANE COUNTY,CITY OF MADISON,Ward 60,EAGLE HEIGHTS COMMUNITY CENTER,"611 EAGLE HTS, MADISON, WI 53705-1501",2193846,,Private,-89.436469,43.088241,2020 Spring Primary
DANE COUNTY,CITY OF MADISON,Ward 61,FIRST CONGREGATIONAL CHURCH,"1609 UNIVERSITY AVE, MADISON, WI 53726-4040",608-233-9751,,Religious,-89.414477,43.073259,2020 Spring Primary
DANE COUNTY,CITY OF MADISON,Ward 62,BLESSED SACRAMENT CATHOLIC CHURCH,"2131 ROWLEY AVE, MADISON, WI 53726-3943",608-238-3471,,Religious,-89.422727,43.066657,2020 Spring Primary
DANE COUNTY,CITY OF MADISON,Ward 63,WEST HIGH SCHOOL,"30 ASH ST, MADISON, WI 53726-3954",608-576-6033,,School,-89.42709351,43.06875992,2020 Spring Primary
DANE COUNTY,CITY OF MADISON,Ward 64,HOYT SCHOOL,"3802 REGENT ST, MADISON, WI 53705-5221",608-204-3014,,School,-89.439349,43.068621,2020 Spring Primary
DANE COUNTY,CITY OF MADISON,Ward 65,WINGRA SCHOOL,"718 GILMORE ST, MADISON, WI 53711-1995",608-238-2525,,School,-89.434189,43.054855,2020 Spring Primary
DANE COUNTY,CITY OF MADISON,Ward 66,SAINT JAMES CATHOLIC SCHOOL,"1204 SAINT JAMES CT, MADISON, WI 53715-1345",608-256-3095,,School,-89.406064,43.06607,2020 Spring Primary
DANE COUNTY,CITY OF MADISON,Ward 67,BRITTINGHAM APARTMENTS,"755 BRAXTON PL, MADISON, WI 53715-1456",608-575-4472,,Government,-89.398372,43.065576,2020 Spring Primary
DANE COUNTY,CITY OF MADISON,Ward 68,TRINITY UNITED METHODIST CHURCH,"1123 VILAS AVE, MADISON, WI 53715-1547",608-257-4591,,Religious,-89.405075,43.062801,2020 Spring Primary
DANE COUNTY,CITY OF MADISON,Ward 69,BJARNE ROMNES APARTMENTS,"540 W OLIN AVE, MADISON, WI 53715-2510",608-209-8375,,Government,-89.391455,43.054681,2020 Spring Primary
DANE COUNTY,CITY OF MADISON,Ward 70,BRIDGE LAKE POINT WAUNONA NEIGHBORHOOD CENTER,"1917 LAKE POINT DR, MADISON, WI 53713-1681",608-441-6991,,Private,-89.347067,43.048085,2020 Spring Primary
DANE COUNTY,CITY OF MADISON,Ward 71,BADGER ROCK NEIGHBORHOOD CENTER,"501 E BADGER RD, MADISON, WI 53713-2120",2749111,,School,-89.377411,43.037693,2020 Spring Primary
DANE COUNTY,CITY OF MADISON,Ward 72,Catholic Multicultural Center,"1862 BELD ST, MADISON, WI 53713-1310",,,Religious,-89.393517,43.045927,2020 Spring Primary
DANE COUNTY,CITY OF MADISON,Ward 73,VILLAGE ON PARK,"2300 S PARK ST, MADISON, WI 53713-1997",,,Private,-89.395486,43.040975,2020 Spring Primary
DANE COUNTY,CITY OF MADISON,Ward 74,LEOPOLD ELEMENTARY,"2602 POST RD, MADISON, WI 53713-3528",608-204-4240,,School,-89.421648,43.027289,2020 Spring Primary
DANE COUNTY,CITY OF MADISON,Ward 75,LEOPOLD ELEMENTARY,"2602 POST RD, MADISON, WI 53713-3528",608-204-4240,,School,-89.421648,43.027289,2020 Spring Primary
DANE COUNTY,CITY OF MADISON,Ward 76,REVIVAL RIDGE APARTMENTS,"2313 ALLIED DR, MADISON, WI 53711-4598",608-266-4601,,Private,-89.459219,43.028404,2020 Spring Primary
DANE COUNTY,CITY OF MADISON,Ward 77,TOKI MIDDLE SCHOOL,"5606 RUSSETT RD, MADISON, WI 53711-3568",608-204-4740,,School,-89.475251,43.033725,2020 Spring Primary
DANE COUNTY,CITY OF MADISON,Ward 78,THOREAU ELEMENTARY SCHOOL,"3870 NAKOMA RD, MADISON, WI 53711-3016",608-204-6952,,School,-89.442431,43.045891,2020 Spring Primary
DANE COUNTY,CITY OF MADISON,Ward 79,SEQUOYA  LIBRARY,"4340 TOKAY BLVD, MADISON, WI 53711-1567",608-266-4601,,Government,-89.450553,43.0538,2020 Spring Primary
DANE COUNTY,CITY OF MADISON,Ward 80,MIDVALE ELEMENTARY,"502 CAROMAR DR, MADISON, WI 53711-1525",608-204-6715,,School,-89.449782,43.057056,2020 Spring Primary
DANE COUNTY,CITY OF MADISON,Ward 81,MIDVALE ELEMENTARY,"502 CAROMAR DR, MADISON, WI 53711-1525",608-204-6715,,School,-89.449782,43.057056,2020 Spring Primary
DANE COUNTY,CITY OF MADISON,Ward 82,Midtown Madison Police District,"4020 MINERAL POINT RD, MADISON, WI 53705",,Community Room,Government,-89.443166,43.061272,2020 Spring Primary
DANE COUNTY,CITY OF MADISON,Ward 83,COVENANT PRESBYTERIAN CHURCH,"326 S SEGOE RD, MADISON, WI 53705-4955",608-233-6297,,Religious,-89.458186,43.061556,2020 Spring Primary
DANE COUNTY,CITY OF MADISON,Ward 84,Mount Olive Lutheran Church,"110 N WHITNEY WAY, MADISON, WI 53705-2719",,,Religious,-89.468961,43.069665,2020 Spring Primary
DANE COUNTY,CITY OF MADISON,Ward 85,Wellspring United Methodist Church,"5702 SOUTH HILL DR, MADISON, WI 53705",,,Religious,-89.4792735,43.064775,2020 Spring Primary
DANE COUNTY,CITY OF MADISON,Ward 86,Asbury United Methodist Church,"6101 UNIVERSITY AVE, MADISON, WI 53705",,,Religious,-89.485902,43.088598,2020 Spring Primary
DANE COUNTY,CITY OF MADISON,Ward 87,JOHN MUIR ELEMENTARY SCHOOL,"6602 INNER DR, MADISON, WI 53705-4219",2193914,,School,-89.494762,43.06804,2020 Spring Primary
DANE COUNTY,CITY OF MADISON,Ward 88,ALICIA ASHMAN LIBRARY,"733 N HIGH POINT RD, MADISON, WI 53717-2237",608-266-6342,,Government,-89.517787,43.076118,2020 Spring Primary
DANE COUNTY,CITY OF MADISON,Ward 89,OAKWOOD VILLAGE UNIVERSITY WOODS,"6205 MINERAL POINT RD, MADISON, WI 53705-4576",608-230-4699,,Private,-89.487376,43.05956,2020 Spring Primary
DANE COUNTY,CITY OF MADISON,Ward 90,MADISON ICE ARENA,"725 FORWARD DR, MADISON, WI 53711-2442",608-204-7606,,Private,-89.486946,43.048361,2020 Spring Primary
DANE COUNTY,CITY OF MADISON,Ward 91,FALK ELEMENTARY,"6323 WOODINGTON WAY, MADISON, WI 53711-3162",608-204-2180,,School,-89.48973084,43.04021072,2020 Spring Primary
DANE COUNTY,CITY OF MADISON,Ward 92,MEADOWRIDGE LIBRARY,"5726 RAYMOND RD, MADISON, WI 53711-4232",,,Government,-89.47911,43.032467,2020 Spring Primary
DANE COUNTY,CITY OF MADISON,Ward 93,GOOD SHEPHERD LUTHERAN CHURCH,"5701 RAYMOND RD, MADISON, WI 53711-4231",608-271-6633,,Religious,-89.4777832,43.03118515,2020 Spring Primary
DANE COUNTY,CITY OF MADISON,Ward 94,GOOD SHEPHERD LUTHERAN CHURCH,"5701 RAYMOND RD, MADISON, WI 53711-4231",608-271-6633,,Religious,-89.4777832,43.03118515,2020 Spring Primary
DANE COUNTY,CITY OF MADISON,Ward 95,MEADOWRIDGE LIBRARY,"5726 RAYMOND RD, MADISON, WI 53711-4232",,,Government,-89.47911,43.032467,2020 Spring Primary
DANE COUNTY,CITY OF MADISON,Ward 96,HERITAGE CONGREGATIONAL CHURCH,"3102 PRAIRIE RD, MADISON, WI 53719-1578",___-___-____,,Religious,-89.492236,43.019899,2020 Spring Primary
DANE COUNTY,CITY OF MADISON,Ward 97,SAINT MARY'S CARE CENTER,"3401 MAPLE GROVE DR, MADISON, WI 53719-5013",608-845-0582,,Private,-89.497348,43.011285,2020 Spring Primary
DANE COUNTY,CITY OF MADISON,Ward 98,CHAVEZ ELEMENTARY,"3502 MAPLE GROVE DR, MADISON, WI 53719-4879",608-442-2000,,School,-89.500246,43.009843,2020 Spring Primary
DANE COUNTY,CITY OF MADISON,Ward 99,HERITAGE CONGREGATIONAL CHURCH,"3102 PRAIRIE RD, MADISON, WI 53719-1578",___-___-____,,Religious,-89.492236,43.019899,2020 Spring Primary
DANE COUNTY,CITY OF MADISON,Ward 100,MERITER MCKEE CLINIC,"3102 MERITER WAY, MADISON, WI 53719-5833",608-417-8800,,Private,-89.527694,43.017316,2020 Spring Primary
DANE COUNTY,CITY OF MADISON,Ward 101,ELVER PARK SHELTER,"1250 MCKENNA BLVD, MADISON, WI 53719",2664,,Government,-89.50376,43.037877,2020 Spring Primary
DANE COUNTY,CITY OF MADISON,Ward 102,ELVER PARK SHELTER,"1250 MCKENNA BLVD, MADISON, WI 53719",2664,,Government,-89.50376,43.037877,2020 Spring Primary
DANE COUNTY,CITY OF MADISON,Ward 103,MADISON WEST POLICE DISTRICT,"1710 MCKENNA BLVD, MADISON, WI 53711-3215",608-213-0501,,Government,-89.497652,43.033697,2020 Spring Primary
DANE COUNTY,CITY OF MADISON,Ward 104,MADISON ICE ARENA,"725 FORWARD DR, MADISON, WI 53711-2442",608-204-7606,,Private,-89.486946,43.048361,2020 Spring Primary
DANE COUNTY,CITY OF MADISON,Ward 105,COVENTRY VILLAGE,"7707 N BROOKLINE DR, MADISON, WI 53719-3510",608-829-0603,,Private,-89.51874542,43.04904938,2020 Spring Primary
DANE COUNTY,CITY OF MADISON,Ward 106,BLACKHAWK CHURCH,"9620 BRADER WAY, MIDDLETON, WI 53562-9296",608-828-4200,,Religious,-89.55416107,43.06245422,2020 Spring Primary
DANE COUNTY,CITY OF MADISON,Ward 107,COVENTRY VILLAGE,"7707 N BROOKLINE DR, MADISON, WI 53719-3510",608-829-0603,,Private,-89.51874542,43.04904938,2020 Spring Primary
DANE COUNTY,CITY OF MADISON,Ward 108,LUSSIER COMMUNITY EDUCATION CENTER,"55 S GAMMON RD, MADISON, WI 53717-1479",8334979,,Private,-89.501904,43.066372,2020 Spring Primary
DANE COUNTY,CITY OF MADISON,Ward 109,HIGH POINT CHURCH,"7702 OLD SAUK RD, MADISON, WI 53717-1221",608-836-3236,,Religious,-89.516049,43.076365,2020 Spring Primary
DANE COUNTY,CITY OF MADISON,Ward 110,ATTIC ANGEL ASSOCIATION,"640 JUNCTION RD, MADISON, WI 53717-2106",608-662-8900,,Private,-89.527979,43.074309,2020 Spring Primary
DANE COUNTY,CITY OF MADISON,Ward 111,THE JEFFERSON,"9401 OLD SAUK RD, MIDDLETON, WI 53562-4409",608-831-4038,,Private,-89.550568,43.074028,2020 Spring Primary
DANE COUNTY,CITY OF MADISON,Ward 112,BLACK HAWK MIDDLE SCHOOL,"1402 WYOMING WAY, MADISON, WI 53704-1447",608-204-4360,,School,-89.370334,43.146452,2020 Spring Primary
DANE COUNTY,CITY OF MADISON,Ward 113,BRIDGE LAKE POINT WAUNONA NEIGHBORHOOD CENTER,"1917 LAKE POINT DR, MADISON, WI 53713-1681",608-441-6991,,Private,-89.347067,43.048085,2020 Spring Primary
DANE COUNTY,CITY OF MADISON,Ward 114,MADISON WEST POLICE DISTRICT,"1710 MCKENNA BLVD, MADISON, WI 53711-3215",608-213-0501,,Government,-89.497652,43.033697,2020 Spring Primary
DANE COUNTY,CITY OF MADISON,Ward 115,MADISON WEST POLICE DISTRICT,"1710 MCKENNA BLVD, MADISON, WI 53711-3215",608-213-0501,,Government,-89.497652,43.033697,2020 Spring Primary
DANE COUNTY,CITY OF MADISON,Ward 116,MADISON WEST POLICE DISTRICT,"1710 MCKENNA BLVD, MADISON, WI 53711-3215",608-213-0501,,Government,-89.497652,43.033697,2020 Spring Primary
DANE COUNTY,CITY OF MADISON,Ward 117,MADISON ICE ARENA,"725 FORWARD DR, MADISON, WI 53711-2442",608-204-7606,,Private,-89.486946,43.048361,2020 Spring Primary
DANE COUNTY,CITY OF MADISON,Ward 118,BLACK HAWK MIDDLE SCHOOL,"1402 WYOMING WAY, MADISON, WI 53704-1447",608-204-4360,,School,-89.370334,43.146452,2020 Spring Primary
DANE COUNTY,CITY OF MADISON,Ward 119,ELVER PARK SHELTER,"1250 MCKENNA BLVD, MADISON, WI 53719",2664,,Government,-89.50376,43.037877,2020 Spring Primary
DANE COUNTY,CITY OF MADISON,Ward 120,ATTIC ANGEL ASSOCIATION,"640 JUNCTION RD, MADISON, WI 53717-2106",608-662-8900,,Private,-89.527979,43.074309,2020 Spring Primary
DANE COUNTY,CITY OF MADISON,Ward 121,ELVER PARK SHELTER,"1250 MCKENNA BLVD, MADISON, WI 53719",2664,,Government,-89.50376,43.037877,2020 Spring Primary
DANE COUNTY,CITY OF MADISON,Ward 122,THE JEFFERSON,"9401 OLD SAUK RD, MIDDLETON, WI 53562-4409",608-831-4038,,Private,-89.550568,43.074028,2020 Spring Primary
DANE COUNTY,CITY OF MADISON,Ward 123,GLENDALE ELEMENTARY SCHOOL,"1201 TOMPKINS DR, MADISON, WI 53716-3272",608-516-41,,School,-89.31206,43.057848,2020 Spring Primary
DANE COUNTY,CITY OF MADISON,Ward 124,THE JEFFERSON,"9401 OLD SAUK RD, MIDDLETON, WI 53562-4409",608-831-4038,,Private,-89.550568,43.074028,2020 Spring Primary
DANE COUNTY,CITY OF MADISON,Ward 125,BLACKHAWK CHURCH,"9620 BRADER WAY, MIDDLETON, WI 53562-9296",608-828-4200,,Religious,-89.55416107,43.06245422,2020 Spring Primary
DANE COUNTY,CITY OF MADISON,Ward 126,EASTSIDE EVANGELICAL LUTHERAN CHURCH,"2310 INDEPENDENCE LN, MADISON, WI 53704-3528",608-244-3045,,Religious,-89.310947,43.129429,2020 Spring Primary
DANE COUNTY,CITY OF MADISON,Ward 127,COVENTRY VILLAGE,"7707 N BROOKLINE DR, MADISON, WI 53719-3510",608-829-0603,,Private,-89.51874542,43.04904938,2020 Spring Primary
DANE COUNTY,CITY OF MADISON,Ward 128,Oak Park Place,"718 JUPITER DR, MADISON, WI 53718-2950",,,Private,-89.283118,43.087395,2020 Spring Primary
DANE COUNTY,CITY OF MADISON,Ward 129,DOOR CREEK CHURCH,"6602 DOMINION DR, MADISON, WI 53718-3248",0,,Religious,-89.264546,43.091965,2020 Spring Primary
DANE COUNTY,CITY OF MADISON,Ward 130,Oak Park Place,"718 JUPITER DR, MADISON, WI 53718-2950",,,Private,-89.283118,43.087395,2020 Spring Primary
DANE COUNTY,CITY OF MADISON,Ward 131,DOOR CREEK CHURCH,"6602 DOMINION DR, MADISON, WI 53718-3248",0,,Religious,-89.264546,43.091965,2020 Spring Primary
DANE COUNTY,CITY OF MADISON,Ward 132,Oak Park Place,"718 JUPITER DR, MADISON, WI 53718-2950",,,Private,-89.283118,43.087395,2020 Spring Primary
DANE COUNTY,CITY OF MADISON,Ward 133,Oak Park Place,"718 JUPITER DR, MADISON, WI 53718-2950",,,Private,-89.283118,43.087395,2020 Spring Primary
DANE COUNTY,CITY OF MADISON,Ward 134,DOOR CREEK CHURCH,"6602 DOMINION DR, MADISON, WI 53718-3248",0,,Religious,-89.264546,43.091965,2020 Spring Primary
DANE COUNTY,CITY OF MADISON,Ward 135,BLACK HAWK MIDDLE SCHOOL,"1402 WYOMING WAY, MADISON, WI 53704-1447",608-204-4360,,School,-89.370334,43.146452,2020 Spring Primary
DANE COUNTY,CITY OF MADISON,Ward 136,GOODWILL OF SOUTH CENTRAL WISCONSIN,"1302 MENDOTA ST, MADISON, WI 53714",,,Other,-89.316756,43.116507,2020 Spring Primary
DANE COUNTY,CITY OF MADISON,Ward 137,BLACKHAWK CHURCH,"9620 BRADER WAY, MIDDLETON, WI 53562-9296",608-828-4200,,Religious,-89.55416107,43.06245422,2020 Spring Primary
DANE COUNTY,CITY OF MADISON,Ward 138,THE JEFFERSON,"9401 OLD SAUK RD, MIDDLETON, WI 53562-4409",608-831-4038,,Private,-89.550568,43.074028,2020 Spring Primary
DANE COUNTY,CITY OF MADISON,Ward 139,BADGER ROCK NEIGHBORHOOD CENTER,"501 E BADGER RD, MADISON, WI 53713-2120",2749111,,School,-89.377411,43.037693,2020 Spring Primary
DANE COUNTY,CITY OF MADISON,Ward 140,BLACKHAWK CHURCH,"9620 BRADER WAY, MIDDLETON, WI 53562-9296",608-828-4200,,Religious,-89.55416107,43.06245422,2020 Spring Primary
DANE COUNTY,CITY OF MADISON,Ward 141,MADISON ICE ARENA,"725 FORWARD DR, MADISON, WI 53711-2442",608-204-7606,,Private,-89.486946,43.048361,2020 Spring Primary
DANE COUNTY,CITY OF MADISON,Ward 142,OAKWOOD VILLAGE PRAIRIE RIDGE,"5565 TANCHO DR, MADISON, WI 53718-1901",608-230-4550,,Business,-89.28355,43.156233,2020 Spring Primary
DANE COUNTY,CITY OF MADISON,Ward 143,THE JEFFERSON,"9401 OLD SAUK RD, MIDDLETON, WI 53562-4409",608-831-4038,,Private,-89.550568,43.074028,2020 Spring Primary
DANE COUNTY,CITY OF MADISON,Ward 144,CHAVEZ ELEMENTARY,"3502 MAPLE GROVE DR, MADISON, WI 53719-4879",608-442-2000,,School,-89.500246,43.009843,2020 Spring Primary
DANE COUNTY,CITY OF MADISON,Ward 145,EASTSIDE EVANGELICAL LUTHERAN CHURCH,"2310 INDEPENDENCE LN, MADISON, WI 53704-3528",608-244-3045,,Religious,-89.310947,43.129429,2020 Spring Primary
DANE COUNTY,CITY OF MADISON,Ward 146,BADGER ROCK NEIGHBORHOOD CENTER,"501 E BADGER RD, MADISON, WI 53713-2120",2749111,,School,-89.377411,43.037693,2020 Spring Primary
DANE COUNTY,CITY OF MADISON,Ward 147,BLACKHAWK CHURCH,"9620 BRADER WAY, MIDDLETON, WI 53562-9296",608-828-4200,,Religious,-89.55416107,43.06245422,2020 Spring Primary
DANE COUNTY,CITY OF MADISON,Ward 148,SAINT MARY'S CARE CENTER,"3401 MAPLE GROVE DR, MADISON, WI 53719-5013",608-845-0582,,Private,-89.497348,43.011285,2020 Spring Primary
DANE COUNTY,CITY OF MADISON,Ward 149,LUSSIER COMMUNITY EDUCATION CENTER,"55 S GAMMON RD, MADISON, WI 53717-1479",8334979,,Private,-89.501904,43.066372,2020 Spring Primary
DANE COUNTY,CITY OF MADISON,Ward 150,COVENTRY VILLAGE,"7707 N BROOKLINE DR, MADISON, WI 53719-3510",608-829-0603,,Private,-89.51874542,43.04904938,2020 Spring Primary
DANE COUNTY,CITY OF MADISON,Ward 151,BLACKHAWK CHURCH,"9620 BRADER WAY, MIDDLETON, WI 53562-9296",608-828-4200,,Religious,-89.55416107,43.06245422,2020 Spring Primary
DANE COUNTY,CITY OF MIDDLETON,"Wards 1-4,9,19-20",Saint Luke's Lutheran Church,"7337 HUBBARD AVE, MIDDLETON, WI 53562-3115",608-831-6084,Friendship Hall,Religious,-89.507999,43.094841,2020 Spring Primary
DANE COUNTY,CITY OF MIDDLETON,Wards 5-8,Saint Bernard's Parish,"7436 UNIVERSITY AVE, MIDDLETON, WI 53562-3112",,Parish Center,Religious,-89.511049,43.097361,2020 Spring Primary
DANE COUNTY,CITY OF MIDDLETON,"Wards 10-13,22",Middleton Courthouse,"7341 DONNA DR, MIDDLETON, WI 53562-1735",608-824-7300,Courtroom,Government,-89.509051,43.105623,2020 Spring Primary
DANE COUNTY,CITY OF MIDDLETON,"Wards 14-16,18,17,21",District Service Center (DSC),"7106 SOUTH AVE, MIDDLETON, WI 53562-3263",608-829-9004,Gymnasium,School,-89.503365,43.094255,2020 Spring Primary
DANE COUNTY,CITY OF MONONA,Wards 1-5,SAINT STEPHENS LUTHERAN CHURCH,"5700 PHEASANT HILL RD, MONONA, WI 53716-3118",2222525,,Religious,-89.330072,43.057799,2020 Spring Primary
DANE COUNTY,CITY OF MONONA,Wards 6-10,MONONA COMMUNITY CENTER,"1011 NICHOLS RD, MONONA, WI 53716-2530",2222525,,Government,-89.340679,43.063846,2020 Spring Primary
